city,county,state,ev_count,bev_count,phev_count,bev_ratio,phev_ratio,required_chargers,high_demand,centroid_lat,centroid_lon
Aberdeen,Grays Harbor,WA,236,163,73,0.690677966101695,0.3093220338983051,12,1,46.97606,-123.81619000000002
Aberdeen Proving Ground,Harford,MD,1,1,0,1.0,0.0,1,0,39.48329,-76.13297
Acme,Whatcom,WA,11,7,4,0.6363636363636364,0.36363636363636365,1,0,48.71768,-122.20348
Addy,Stevens,WA,6,6,0,1.0,0.0,1,0,48.35609,-117.8379
Airway Heights,Spokane,WA,42,30,12,0.7142857142857143,0.2857142857142857,3,0,47.6443,-117.59311
Alameda,Alameda,CA,3,2,1,0.6666666666666666,0.3333333333333333,1,0,37.76707,-122.24584
Alderdale,Klickitat,WA,1,1,0,1.0,0.0,1,0,46.20663,-119.76904
Alexandria,Alexandria,VA,4,3,1,0.75,0.25,1,0,38.81284,-77.06232
Alexandria,Fairfax,VA,5,4,1,0.8,0.2,1,0,38.762997999999996,-77.099266
Algona,King,WA,48,39,9,0.8125,0.1875,3,1,47.3074,-122.23035
Aliso Viejo,Orange,CA,1,0,1,0.0,1.0,1,0,33.56964,-117.72682
Allyn,Mason,WA,109,83,26,0.7614678899082569,0.23853211009174313,6,1,47.38173,-122.82984
Almira,Grant,WA,1,1,0,1.0,0.0,1,0,47.71094,-118.94018
Almira,Lincoln,WA,1,1,0,1.0,0.0,1,0,47.71094,-118.94018
Alvord,Wise,TX,1,1,0,1.0,0.0,1,0,33.35908,-97.69452
Amanda Park,Grays Harbor,WA,4,2,2,0.5,0.5,1,0,47.45917,-123.89691
Amboy,Clark,WA,33,30,3,0.9090909090909091,0.09090909090909091,2,0,45.91958,-122.42148
Amboy,Cowlitz,WA,1,1,0,1.0,0.0,1,0,45.91958,-122.42148
Anacortes,San Juan,WA,15,13,2,0.8666666666666667,0.13333333333333333,1,0,48.51748,-122.61214
Anacortes,Skagit,WA,935,692,243,0.7401069518716578,0.25989304812834224,47,1,48.51748,-122.61214
Anderson Island,Pierce,WA,57,45,12,0.7894736842105263,0.21052631578947367,3,1,47.17794000000001,-122.67876
Ann Arbor,Washtenaw,MI,1,0,1,0.0,1.0,1,0,42.28709,-83.68367
Annapolis,Anne Arundel,MD,3,3,0,1.0,0.0,1,0,38.97309666666666,-76.48979333333334
Apache Junction,Pinal,AZ,1,0,1,0.0,1.0,1,0,33.42314,-111.54612
Appleton,Klickitat,WA,1,0,1,0.0,1.0,1,0,45.6939,-121.28544
Arcadia,Los Angeles,CA,1,1,0,1.0,0.0,1,0,34.14554,-118.0279
Ariel,Cowlitz,WA,25,17,8,0.68,0.32,2,0,45.989740000000005,-122.53658
Arlington,Arlington,VA,3,3,0,1.0,0.0,1,0,38.854713333333336,-77.09329000000001
Arlington,Shelby,TN,1,1,0,1.0,0.0,1,0,35.2917,-89.67459
Arlington,Snohomish,WA,872,696,176,0.7981651376146789,0.2018348623853211,44,1,48.19471,-122.12640000000002
Arroyo Grande,San Luis Obispo,CA,1,0,1,0.0,1.0,1,0,35.12435,-120.57684
Artondale,Pierce,WA,2,2,0,1.0,0.0,1,0,47.328,-122.58009
Ashburn,Loudoun,VA,1,1,0,1.0,0.0,1,0,38.9847,-77.53051
Ashford,Lewis,WA,11,10,1,0.9090909090909091,0.09090909090909091,1,0,46.75908,-122.03242999999999
Ashford,Pierce,WA,14,9,5,0.6428571428571429,0.35714285714285715,1,0,46.75908,-122.03243
Asotin,Asotin,WA,15,12,3,0.8,0.2,1,0,46.34056,-117.04784
Auburn,King,WA,2565,2079,486,0.8105263157894737,0.18947368421052632,129,1,47.31284068615984,-122.20701682261209
Auburn,Pierce,WA,373,311,62,0.8337801608579088,0.16621983914209115,19,1,47.319900000000004,-122.1821
Augusta,Richmond,GA,1,0,1,0.0,1.0,1,0,33.48103,-82.06552
Austin,Travis,TX,3,2,1,0.6666666666666666,0.3333333333333333,1,0,30.36155666666667,-97.74799333333334
Austin,Williamson,TX,1,1,0,1.0,0.0,1,0,30.49266,-97.79398
Bainbridge Island,Kitsap,WA,2260,1693,567,0.7491150442477876,0.25088495575221237,113,1,47.62732,-122.52100000000002
Ballwin,St. Louis,MO,1,0,1,0.0,1.0,1,0,38.57028,-90.50774
Baring,King,WA,8,8,0,1.0,0.0,1,0,47.77193,-121.48491
Barstow,San Bernardino,CA,1,0,1,0.0,1.0,1,0,34.89308,-117.02546
Battle Ground,Clark,WA,882,670,212,0.7596371882086168,0.24036281179138322,45,1,45.78092,-122.5331
Bay Center,Pacific,WA,1,0,1,0.0,1.0,1,0,46.63188,-123.95518
Bay Point,Contra Costa,CA,1,1,0,1.0,0.0,1,0,38.01946,-121.88851
Baytown,Harris,TX,1,0,1,0.0,1.0,1,0,29.79611,-94.97972
Beale Afb,Yuba,CA,1,1,0,1.0,0.0,1,0,39.09432,-121.33729
Beaux Arts,King,WA,58,45,13,0.7758620689655172,0.22413793103448276,3,1,47.61001,-122.1872
Beaver,Clallam,WA,1,0,1,0.0,1.0,1,0,48.05431,-124.33152
Beavercreek,Greene,OH,2,2,0,1.0,0.0,1,0,39.71699,-84.061825
Beaverton,Washington,OR,1,1,0,1.0,0.0,1,0,45.53043,-122.88429
Belfair,Kitsap,WA,1,0,1,0.0,1.0,1,0,47.44998,-122.82802
Belfair,Mason,WA,212,157,55,0.7405660377358491,0.25943396226415094,11,1,47.44998,-122.82802
Belleville,St. Clair,IL,1,0,1,0.0,1.0,1,0,38.5124,-89.98423
Bellevue,King,WA,12202,10527,1675,0.862727421734142,0.13727257826585806,611,1,47.60094785936732,-122.14150615145059
Bellevue,Sarpy,NE,2,1,1,0.5,0.5,1,0,41.13158,-95.9609
Bellingham,Skagit,WA,14,13,1,0.9285714285714286,0.07142857142857142,1,0,48.744899999999994,-122.45485999999998
Bellingham,Whatcom,WA,4186,3130,1056,0.747730530339226,0.252269469660774,210,1,48.76478819875776,-122.47386038222646
Benge,Adams,WA,1,0,1,0.0,1.0,1,0,46.90905,-118.10261
Benicia,Solano,CA,1,1,0,1.0,0.0,1,0,38.05285,-122.15351
Benton City,Benton,WA,105,75,30,0.7142857142857143,0.2857142857142857,6,1,46.26543000000001,-119.48756
Berkeley,Alameda,CA,1,1,0,1.0,0.0,1,0,37.90059,-122.27023
Bethesda,Montgomery,MD,2,2,0,1.0,0.0,1,0,38.98637,-77.09692
Bickleton,Klickitat,WA,3,2,1,0.6666666666666666,0.3333333333333333,1,0,45.99783,-120.30007
Bingen,Klickitat,WA,8,7,1,0.875,0.125,1,0,45.71513,-121.46623
Bingen,Skamania,WA,5,4,1,0.8,0.2,1,0,45.71513,-121.46623
Black Diamond,King,WA,503,442,61,0.878727634194831,0.12127236580516898,26,1,47.31012073558647,-122.00571934393638
Blaine,Whatcom,WA,575,447,128,0.7773913043478261,0.22260869565217392,29,1,48.99404,-122.74888
Bluffton,Beaufort,SC,1,1,0,1.0,0.0,1,0,32.23723,-80.86133
Boca Raton,Palm Beach,FL,1,1,0,1.0,0.0,1,0,26.35049,-80.08837
Boise,Ada,ID,2,2,0,1.0,0.0,1,0,43.58039,-116.1734
Bonney Lake,Pierce,WA,1532,1247,285,0.8139686684073107,0.1860313315926893,77,1,47.19175,-122.17144
Boston,Suffolk,MA,2,1,1,0.5,0.5,1,0,42.360074999999995,-71.06099499999999
Bothell,King,WA,1737,1458,279,0.8393782383419689,0.16062176165803108,87,1,47.76085410477835,-122.20436625791594
Bothell,Snohomish,WA,6516,5711,805,0.8764579496623696,0.12354205033763045,326,1,47.821099599447514,-122.19927310159608
Bow,Skagit,WA,153,113,40,0.738562091503268,0.26143790849673204,8,1,48.56045,-122.397
Bremerton,Kitsap,WA,1993,1535,458,0.77019568489714,0.22980431510286,100,1,47.587281234320116,-122.63163250878074
Bremerton,Mason,WA,1,0,1,0.0,1.0,1,0,47.57192,-122.65223
Brentwood,Williamson,TN,1,0,1,0.0,1.0,1,0,36.03314,-86.78884
Brewer,Penobscot,ME,1,0,1,0.0,1.0,1,0,44.79559,-68.76433
Brewster,Barnstable,MA,1,1,0,1.0,0.0,1,0,41.75916,-70.06624
Brewster,Okanogan,WA,20,14,6,0.7,0.3,1,0,48.09967,-119.78092999999998
Bridgeport,Douglas,WA,4,4,0,1.0,0.0,1,0,48.00744,-119.67013
Bridgeport Bar,Douglas,WA,6,5,1,0.8333333333333334,0.16666666666666666,1,0,48.09967,-119.78093
Brier,Snohomish,WA,341,269,72,0.7888563049853372,0.21114369501466276,18,1,47.82557,-122.29244999999999
Brinnon,Jefferson,WA,35,28,7,0.8,0.2,2,0,47.69838,-122.89646
Brooklyn,Kings,NY,2,1,1,0.5,0.5,1,0,40.661005,-74.01093499999999
Brush Prairie,Clark,WA,400,296,104,0.74,0.26,20,1,45.73473,-122.54578
Buckley,Pierce,WA,392,306,86,0.7806122448979592,0.2193877551020408,20,1,47.16299,-122.02523
Bucoda,Thurston,WA,3,3,0,1.0,0.0,1,0,46.79818,-122.86892
Buena,Yakima,WA,2,2,0,1.0,0.0,1,0,46.42727,-120.31299
Buena Park,Orange,CA,1,0,1,0.0,1.0,1,0,33.83478,-118.01703
Buffalo Grove,Lake,IL,1,1,0,1.0,0.0,1,0,42.15384,-87.9661
Buford,Hall,GA,1,1,0,1.0,0.0,1,0,34.07718,-83.97911
Bunnlevel,Harnett,NC,1,1,0,1.0,0.0,1,0,35.30909,-78.78148
Burbank,Walla Walla,WA,20,18,2,0.9,0.1,1,0,46.1992,-119.01561
Burien,King,WA,1341,1102,239,0.8217747949291574,0.17822520507084266,68,1,47.4813100372856,-122.34260123042506
Burke,Fairfax,VA,2,2,0,1.0,0.0,1,0,38.79355,-77.27191
Burlington,Skagit,WA,363,305,58,0.8402203856749312,0.15977961432506887,19,1,48.46846,-122.33029
Bz Corner,Klickitat,WA,10,8,2,0.8,0.2,1,0,45.72776,-121.48704000000001
Calabasas,Los Angeles,CA,1,1,0,1.0,0.0,1,0,34.15233,-118.69328
California,St. Mary's,MD,1,1,0,1.0,0.0,1,0,38.30337,-76.51936
California City,Kern,CA,1,1,0,1.0,0.0,1,0,35.12894,-117.98563
Camano Island,Island,WA,670,535,135,0.7985074626865671,0.20149253731343283,34,1,48.23986,-122.40049000000002
Camarillo,Ventura,CA,1,0,1,0.0,1.0,1,0,34.2234,-119.05072
Camas,Clark,WA,2177,1716,461,0.7882406982085439,0.21175930179145613,109,1,45.58694,-122.40199
Cambridge,Middlesex,MA,1,1,0,1.0,0.0,1,0,42.36679,-71.10601
Camden,Camden,NJ,1,1,0,1.0,0.0,1,0,39.93956,-75.11932
Carbonado,Pierce,WA,13,13,0,1.0,0.0,1,0,47.08041,-122.04745
Carlton,Okanogan,WA,7,5,2,0.7142857142857143,0.2857142857142857,1,0,48.23650857142858,-120.09332571428571
Carnation,King,WA,482,399,83,0.8278008298755186,0.17219917012448133,25,1,47.649730850622404,-121.91541369294605
Carrollton,Dallas,TX,1,1,0,1.0,0.0,1,0,32.97555,-96.89023
Carson,Skamania,WA,26,19,7,0.7307692307692307,0.2692307692307692,2,0,45.72558,-121.82048
Carthage,Moore,NC,1,1,0,1.0,0.0,1,0,35.34468,-79.41543
Cashmere,Chelan,WA,103,84,19,0.8155339805825242,0.18446601941747573,6,1,47.522400000000005,-120.47005
Castle Rock,Cowlitz,WA,121,93,28,0.768595041322314,0.23140495867768596,7,1,46.27509,-122.90724
Cathedral City,Riverside,CA,1,1,0,1.0,0.0,1,0,33.78101,-116.46435
Cathlamet,Wahkiakum,WA,63,42,21,0.6666666666666666,0.3333333333333333,4,1,46.20785,-123.38663
Cave Creek,Maricopa,AZ,1,1,0,1.0,0.0,1,0,33.82833,-111.95511
Centerville,Klickitat,WA,5,3,2,0.6,0.4,1,0,45.766184,-120.88749
Centralia,Lewis,WA,379,169,210,0.44591029023746703,0.554089709762533,19,1,46.72895,-122.95266000000001
Centralia,Thurston,WA,24,19,5,0.7916666666666666,0.20833333333333334,2,0,46.72895,-122.95266
Chantilly,Loudoun,VA,1,0,1,0.0,1.0,1,0,38.90592,-77.48713
Charlottesville,Albemarle,VA,2,2,0,1.0,0.0,1,0,38.06043,-78.47461
Charlottesville,Charlottesville,VA,1,0,1,0.0,1.0,1,0,38.06043,-78.47461
Chattaroy,Spokane,WA,60,42,18,0.7,0.3,3,1,47.90165533333334,-117.35789916666666
Chehalis,Lewis,WA,320,224,96,0.7,0.3,16,1,46.6619035625,-122.9639050625
Chelan,Chelan,WA,224,186,38,0.8303571428571429,0.16964285714285715,12,1,47.83985,-120.01454
Chelan,Okanogan,WA,1,1,0,1.0,0.0,1,0,47.83985,-120.01454
Chelan Falls,Chelan,WA,5,4,1,0.8,0.2,1,0,47.8029,-119.98523
Cheney,Spokane,WA,243,181,62,0.7448559670781894,0.2551440329218107,13,1,47.49184971193416,-117.57429539094649
Chesapeake,Chesapeake,VA,2,2,0,1.0,0.0,1,0,36.795515,-76.332595
Chewelah,Stevens,WA,27,18,9,0.6666666666666666,0.3333333333333333,2,0,48.28136,-117.71555
Cheyenne,Laramie,WY,2,1,1,0.5,0.5,1,0,41.1559,-104.82256000000001
Chicago,Cook,IL,1,0,1,0.0,1.0,1,0,41.88304,-87.65335
Chimacum,Jefferson,WA,36,30,6,0.8333333333333334,0.16666666666666666,2,0,48.01182,-122.77327999999999
Chinook,Pacific,WA,3,2,1,0.6666666666666666,0.3333333333333333,1,0,46.27264,-123.94534
Chula Vista,San Diego,CA,5,5,0,1.0,0.0,1,0,32.620838000000006,-116.971644
Cincinnati,Hamilton,OH,2,2,0,1.0,0.0,1,0,39.18712,-84.36176
Cinebar,Lewis,WA,8,6,2,0.75,0.25,1,0,46.60409,-122.49165
Clallam Bay,Clallam,WA,3,2,1,0.6666666666666666,0.3333333333333333,1,0,48.25370999999999,-124.26015
Clarkston,Asotin,WA,81,54,27,0.6666666666666666,0.3333333333333333,5,1,46.41402,-117.04555999999998
Clayton,Stevens,WA,9,6,3,0.6666666666666666,0.3333333333333333,1,0,47.99685,-117.57228000000002
Cle Elum,Kittitas,WA,329,276,53,0.8389057750759878,0.16109422492401215,17,1,47.195,-120.93943
Clearlake,Skagit,WA,3,2,1,0.6666666666666666,0.3333333333333333,1,0,48.46376,-122.23452000000002
Clinton,Island,WA,332,261,71,0.786144578313253,0.21385542168674698,17,1,47.9796,-122.35803000000001
Clyde Hill,King,WA,406,363,43,0.8940886699507389,0.10591133004926108,21,1,47.61001000000001,-122.1872
Colbert,Spokane,WA,187,132,55,0.7058823529411765,0.29411764705882354,10,1,47.83687315508021,-117.35465288770054
Colfax,Whitman,WA,30,22,8,0.7333333333333333,0.26666666666666666,2,0,46.87965,-117.36477
College Place,Walla Walla,WA,101,74,27,0.7326732673267327,0.26732673267326734,6,1,46.03456,-118.38863999999998
Colorado Springs,El Paso,CO,16,9,7,0.5625,0.4375,1,0,38.975336875,-104.774206875
Colton,Whitman,WA,6,3,3,0.5,0.5,1,0,46.568009999999994,-117.12984
Columbus,Muscogee,GA,1,0,1,0.0,1.0,1,0,32.53962,-84.92623
Colville,Stevens,WA,70,46,24,0.6571428571428571,0.34285714285714286,4,1,48.54657,-117.90454000000001
Conconully,Okanogan,WA,1,1,0,1.0,0.0,1,0,48.55781,-119.75013
Concrete,Skagit,WA,53,44,9,0.8301886792452831,0.16981132075471697,3,1,48.53892,-121.7515
Connell,Franklin,WA,24,21,3,0.875,0.125,2,0,46.66146,-118.86063
Conroe,Montgomery,TX,1,1,0,1.0,0.0,1,0,30.33878,-95.4946
Converse,Bexar,TX,2,2,0,1.0,0.0,1,0,29.5153,-98.31213
Copalis Beach,Grays Harbor,WA,11,8,3,0.7272727272727273,0.2727272727272727,1,0,47.11487,-124.16705
Copalis Crossing,Grays Harbor,WA,2,2,0,1.0,0.0,1,0,47.11059,-124.07463
Coral Gables,Miami-Dade,FL,1,1,0,1.0,0.0,1,0,25.71966,-80.2715
Coronado,San Diego,CA,2,2,0,1.0,0.0,1,0,32.679874999999996,-117.174225
Corpus Christi,Nueces,TX,2,2,0,1.0,0.0,1,0,27.68525,-97.37361
Cosmopolis,Grays Harbor,WA,26,17,9,0.6538461538461539,0.34615384615384615,2,0,46.9541,-123.76897
Cougar,Cowlitz,WA,3,2,1,0.6666666666666666,0.3333333333333333,1,0,46.04647,-122.30856999999999
Coulee City,Douglas,WA,1,1,0,1.0,0.0,1,0,47.61233,-119.28816
Coulee City,Grant,WA,18,16,2,0.8888888888888888,0.1111111111111111,1,0,47.61233,-119.28816
Coulee Dam,Douglas,WA,3,2,1,0.6666666666666666,0.3333333333333333,1,0,47.9708,-118.97669
Coulee Dam,Okanogan,WA,7,5,2,0.7142857142857143,0.2857142857142857,1,0,47.9708,-118.97669
Coupeville,Island,WA,316,235,81,0.7436708860759493,0.2563291139240506,16,1,48.2177453164557,-122.68483689873418
Covington,King,WA,869,738,131,0.8492520138089759,0.15074798619102417,44,1,47.33778,-122.09124
Cowiche,Yakima,WA,6,5,1,0.8333333333333334,0.16666666666666666,1,0,46.65456,-120.70979
Creston,Lincoln,WA,2,1,1,0.5,0.5,1,0,47.75865,-118.51906
Crestview,Okaloosa,FL,1,0,1,0.0,1.0,1,0,30.76179,-86.57103
Crofton,Anne Arundel,MD,1,0,1,0.0,1.0,1,0,39.01192,-76.69084
Culver City,Los Angeles,CA,1,0,1,0.0,1.0,1,0,34.02202,-118.39589
Cumming,Forsyth,GA,1,1,0,1.0,0.0,1,0,34.1271,-84.18481
Cupertino,Santa Clara,CA,2,1,1,0.5,0.5,1,0,37.31913,-122.02929
Curlew,Ferry,WA,9,7,2,0.7777777777777778,0.2222222222222222,1,0,48.88101,-118.60061000000002
Curtis,Lewis,WA,10,7,3,0.7,0.3,1,0,46.581172,-123.097372
Cusick,Pend Oreille,WA,11,9,2,0.8181818181818182,0.18181818181818182,1,0,48.33866,-117.30443
Custer,Whatcom,WA,36,28,8,0.7777777777777778,0.2222222222222222,2,0,48.91865,-122.64219
Dallas,Dallas,TX,1,1,0,1.0,0.0,1,0,32.75864,-96.83523
Dallesport,Klickitat,WA,18,14,4,0.7777777777777778,0.2222222222222222,1,0,45.629175000000004,-121.16867333333332
Damascus,Clackamas,OR,1,1,0,1.0,0.0,1,0,45.41759,-122.45692
Danville,Ferry,WA,1,1,0,1.0,0.0,1,0,48.99237,-118.50797
Darrington,Skagit,WA,16,16,0,1.0,0.0,1,0,48.25431,-121.60421
Darrington,Snohomish,WA,10,9,1,0.9,0.1,1,0,48.25431,-121.60421
Davenport,Lincoln,WA,28,17,11,0.6071428571428571,0.39285714285714285,2,0,47.65405,-118.14913
Dayton,Columbia,WA,23,20,3,0.8695652173913043,0.13043478260869565,2,0,46.321889999999996,-117.97577
Dayton,Howard,MD,1,0,1,0.0,1.0,1,0,39.2416,-76.99179
Dayton,Montgomery,OH,1,0,1,0.0,1.0,1,0,39.62334,-84.19573
Decatur,DeKalb,GA,2,2,0,1.0,0.0,1,0,33.77437,-84.29658
Dededo,Guam,GU,1,0,1,0.0,1.0,1,0,13.56562,144.8446
Deer Harbor,San Juan,WA,1,1,0,1.0,0.0,1,0,48.61989,-123.00026
Deer Meadows,Lincoln,WA,3,2,1,0.6666666666666666,0.3333333333333333,1,0,47.654050000000005,-118.14913
Deer Park,Spokane,WA,98,68,30,0.6938775510204082,0.30612244897959184,5,1,47.949543673469385,-117.46304591836736
Deer Park,Stevens,WA,18,7,11,0.3888888888888889,0.6111111111111112,1,0,47.95431,-117.47154
Deming,Whatcom,WA,41,33,8,0.8048780487804879,0.1951219512195122,3,0,48.82651,-122.21723
Denver,Denver,CO,1,1,0,1.0,0.0,1,0,39.7336,-104.94975
Derby,Sedgwick,KS,1,0,1,0.0,1.0,1,0,37.54531,-97.27013
Des Moines,King,WA,778,596,182,0.7660668380462725,0.23393316195372751,39,1,47.40637329048843,-122.32199327763496
Des Plaines,Cook,IL,1,1,0,1.0,0.0,1,0,42.0423,-87.88921
Dixie,Walla Walla,WA,1,1,0,1.0,0.0,1,0,46.14048,-118.15568
Dover,Kent,DE,1,0,1,0.0,1.0,1,0,39.15803,-75.52473
Dryden,Chelan,WA,1,1,0,1.0,0.0,1,0,47.54128,-120.55978
Dublin,Alameda,CA,2,2,0,1.0,0.0,1,0,37.70423,-121.91635
Dumfries,Prince William,VA,1,0,1,0.0,1.0,1,0,38.56734,-77.32691
Dupont,Pierce,WA,261,189,72,0.7241379310344828,0.27586206896551724,14,1,47.09583,-122.62954
Durango,La Plata,CO,1,1,0,1.0,0.0,1,0,37.27367,-107.8793
Duvall,King,WA,852,720,132,0.8450704225352113,0.15492957746478872,43,1,47.74006683098591,-121.98597657276997
Eagle River,Anchorage,AK,1,1,0,1.0,0.0,1,0,61.32157,-149.56712
East Wenatchee,Douglas,WA,424,330,94,0.7783018867924528,0.22169811320754718,22,1,47.415150000000004,-120.29473
Easton,Kittitas,WA,24,21,3,0.875,0.125,2,0,47.2378,-121.17954000000002
Eastsound,San Juan,WA,359,275,84,0.766016713091922,0.233983286908078,18,1,48.69389,-122.91109
Eatonville,Pierce,WA,194,143,51,0.7371134020618557,0.26288659793814434,10,1,46.86733,-122.26832
Edgewater,Anne Arundel,MD,1,1,0,1.0,0.0,1,0,38.92598,-76.56571
Edgewood,Pierce,WA,419,345,74,0.8233890214797136,0.1766109785202864,21,1,47.19266887828162,-122.28940897374702
Edmonds,Snohomish,WA,2641,2101,540,0.7955319954562665,0.20446800454373343,133,1,47.84904327527452,-122.33973458538433
Edwall,Lincoln,WA,1,1,0,1.0,0.0,1,0,47.50524,-117.95109
Edwall,Spokane,WA,5,3,2,0.6,0.4,1,0,47.502048,-117.87576199999998
Edwards,Kern,CA,1,1,0,1.0,0.0,1,0,34.92778,-117.93907
Egg Harbor Township,Atlantic,NJ,1,1,0,1.0,0.0,1,0,39.36226,-74.58112
El Monte,Los Angeles,CA,1,1,0,1.0,0.0,1,0,34.05324,-118.02067
El Paso,El Paso,TX,4,2,2,0.5,0.5,1,0,31.8437175,-106.3658975
Elbe,Pierce,WA,4,4,0,1.0,0.0,1,0,46.76455,-122.19367
Electric City,Grant,WA,7,5,2,0.7142857142857143,0.2857142857142857,1,0,47.933479999999996,-119.03590999999999
Elk,Pend Oreille,WA,12,10,2,0.8333333333333334,0.16666666666666666,1,0,48.017230000000005,-117.27816
Elk,Spokane,WA,27,20,7,0.7407407407407407,0.25925925925925924,2,0,48.01722999999999,-117.27816
Ellensburg,Kittitas,WA,421,333,88,0.7909738717339667,0.20902612826603326,22,1,46.99703,-120.54872
Ellicott City,Howard,MD,1,0,1,0.0,1.0,1,0,39.27724,-76.83102
Elma,Grays Harbor,WA,80,57,23,0.7125,0.2875,4,1,47.00379,-123.40382
Elma,Mason,WA,14,9,5,0.6428571428571429,0.35714285714285715,1,0,47.00379,-123.40382
Elmer City,Okanogan,WA,1,1,0,1.0,0.0,1,0,47.99877,-118.95343
Eltopia,Franklin,WA,6,3,3,0.5,0.5,1,0,46.45698000000001,-119.01646999999998
Encinitas,San Diego,CA,1,1,0,1.0,0.0,1,0,33.04586,-117.29258
Endicott,Whitman,WA,6,4,2,0.6666666666666666,0.3333333333333333,1,0,46.927519999999994,-117.68485
Englewood,Arapahoe,CO,2,1,1,0.5,0.5,1,0,39.60558,-104.87507
Enid,Garfield,OK,1,1,0,1.0,0.0,1,0,36.39858,-97.8963
Entiat,Chelan,WA,34,27,7,0.7941176470588235,0.20588235294117646,2,0,47.67562,-120.20831
Enumclaw,King,WA,463,350,113,0.755939524838013,0.24406047516198703,24,1,47.204330000000006,-121.99136
Enumclaw,Pierce,WA,23,17,6,0.7391304347826086,0.2608695652173913,2,0,47.20433,-121.99136
Ephrata,Grant,WA,122,83,39,0.680327868852459,0.319672131147541,7,1,47.31909,-119.55096
Epping,Rockingham,NH,2,2,0,1.0,0.0,1,0,43.03456,-71.07336
Escondido,San Diego,CA,1,1,0,1.0,0.0,1,0,33.14213,-117.06022
Ethel,Lewis,WA,10,7,3,0.7,0.3,1,0,46.545361,-122.769482
Evans,Columbia,GA,1,1,0,1.0,0.0,1,0,33.53342,-82.13029
Evans,Stevens,WA,9,4,5,0.4444444444444444,0.5555555555555556,1,0,48.71331,-118.02344999999998
Evans Mills,Jefferson,NY,1,1,0,1.0,0.0,1,0,44.09095,-75.8098
Everett,Snohomish,WA,3937,3196,741,0.8117856235712472,0.18821437642875286,197,1,47.91786466344933,-122.2157719507239
Everson,Whatcom,WA,109,92,17,0.8440366972477065,0.1559633027522936,6,1,48.92009,-122.34527
Ewa Beach,Honolulu,HI,1,0,1,0.0,1.0,1,0,21.31431,-158.00833
Fairchild Air Force Base,Spokane,WA,25,17,8,0.68,0.32,2,0,47.64045999999999,-117.64458
Fairfield,Spokane,WA,4,2,2,0.5,0.5,1,0,47.38522,-117.17125
Fall City,King,WA,308,250,58,0.8116883116883117,0.18831168831168832,16,1,47.56812,-121.89085999999999
Fallbrook,San Diego,CA,1,1,0,1.0,0.0,1,0,33.38466,-117.25324
Fallon,Churchill,NV,1,0,1,0.0,1.0,1,0,39.47491,-118.77797
Falls Church,Fairfax,VA,1,1,0,1.0,0.0,1,0,38.84954,-77.13087
Farmington,Whitman,WA,1,0,1,0.0,1.0,1,0,47.08917,-117.04546
Fayetteville,Cumberland,NC,2,2,0,1.0,0.0,1,0,35.0196,-78.89817
Feasterville Trevose,Bucks,PA,1,1,0,1.0,0.0,1,0,40.12605,-74.97141
Federal Way,King,WA,2258,1847,411,0.8179805137289636,0.1820194862710363,113,1,47.305687240921166,-122.34531430469443
Ferndale,Whatcom,WA,538,414,124,0.7695167286245354,0.23048327137546468,27,1,48.84787,-122.5945
Fife,Pierce,WA,302,216,86,0.7152317880794702,0.2847682119205298,16,1,47.23679,-122.35685999999998
Fircrest,Pierce,WA,216,180,36,0.8333333333333334,0.16666666666666666,11,1,47.23451,-122.53166
Foley,Baldwin,AL,1,1,0,1.0,0.0,1,0,30.40607,-87.6838
Folsom,Sacramento,CA,1,1,0,1.0,0.0,1,0,38.68175,-121.16283
Ford,Lincoln,WA,2,1,1,0.5,0.5,1,0,47.90886,-117.80582
Ford,Stevens,WA,3,1,2,0.3333333333333333,0.6666666666666666,1,0,47.90886,-117.80582
Forks,Clallam,WA,28,18,10,0.6428571428571429,0.35714285714285715,2,0,47.95014,-124.38543
Fort Belvoir,Fairfax,VA,2,2,0,1.0,0.0,1,0,38.68838,-77.13524
Fort Benning,Muscogee,GA,1,1,0,1.0,0.0,1,0,32.35752,-84.95623
Fort Bragg,Cumberland,NC,3,1,2,0.3333333333333333,0.6666666666666666,1,0,35.13558,-78.9973
Fort George G Meade,Anne Arundel,MD,2,1,1,0.5,0.5,1,0,39.10852,-76.73517
Fort Gregg Adams,Prince George,VA,1,1,0,1.0,0.0,1,0,37.24287,-77.34504
Fort Huachuca,Cochise,AZ,1,1,0,1.0,0.0,1,0,31.55513,-110.34623
Fort Irwin,San Bernardino,CA,3,3,0,1.0,0.0,1,0,35.15816,-116.76394
Fort Knox,Meade,KY,1,1,0,1.0,0.0,1,0,37.88175,-85.96242
Fort Leavenworth,Leavenworth,KS,6,3,3,0.5,0.5,1,0,39.35435,-94.92025
Fort Lee,Prince George,VA,1,1,0,1.0,0.0,1,0,37.24287,-77.34504
Fort Riley,Geary,KS,1,1,0,1.0,0.0,1,0,39.06746,-96.78158
Fort Washington,Prince George's,MD,1,1,0,1.0,0.0,1,0,38.74059,-77.00057
Fort Wayne,Allen,IN,2,1,1,0.5,0.5,1,0,41.108595,-85.16734
Fox Island,Pierce,WA,286,212,74,0.7412587412587412,0.25874125874125875,15,1,47.27375,-122.65106999999999
Frances,Pacific,WA,1,1,0,1.0,0.0,1,0,46.68867,-123.72994
Frederick,Frederick,MD,1,1,0,1.0,0.0,1,0,39.41574,-77.41203
Fredericksburg,Stafford,VA,1,1,0,1.0,0.0,1,0,38.33761,-77.44058
Freeland,Island,WA,261,191,70,0.7318007662835249,0.2681992337164751,14,1,48.00956,-122.52664
Fremont,Alameda,CA,1,1,0,1.0,0.0,1,0,37.55148,-121.9833
Fresno,Fresno,CA,2,1,1,0.5,0.5,1,0,36.799945,-119.89837499999999
Friday Harbor,San Juan,WA,550,437,113,0.7945454545454546,0.20545454545454545,28,1,48.53448,-123.01648
Gaithersburg,Montgomery,MD,1,1,0,1.0,0.0,1,0,39.12004,-77.23908
Gales Ferry,New London,CT,1,1,0,1.0,0.0,1,0,41.42621,-72.08157
Galvin,Lewis,WA,2,2,0,1.0,0.0,1,0,46.74162,-123.02628
Gambrills,Anne Arundel,MD,1,0,1,0.0,1.0,1,0,39.0606,-76.6969
Gardena,Los Angeles,CA,1,0,1,0.0,1.0,1,0,33.89748,-118.31964
Gardiner,Jefferson,WA,1,1,0,1.0,0.0,1,0,48.07965,-123.10367
Garfield,Whitman,WA,7,6,1,0.8571428571428571,0.14285714285714285,1,0,47.00706,-117.13359
Geneva,Kane,IL,1,1,0,1.0,0.0,1,0,41.88741,-88.30511
Germantown,Montgomery,MD,1,1,0,1.0,0.0,1,0,39.18272,-77.27048
Gifford,Stevens,WA,1,0,1,0.0,1.0,1,0,48.31085,-118.13633
Gig Harbor,Kitsap,WA,2,2,0,1.0,0.0,1,0,47.38336,-122.6658
Gig Harbor,Pierce,WA,2745,2157,588,0.7857923497267759,0.21420765027322405,138,1,47.340340819672136,-122.59435570127505
Glacier,Whatcom,WA,23,20,3,0.8695652173913043,0.13043478260869565,2,0,48.82651,-122.21723
Gladstone,Clackamas,OR,1,0,1,0.0,1.0,1,0,45.38059,-122.59479
Glenoma,Lewis,WA,8,4,4,0.5,0.5,1,0,46.53072,-122.13017
Gold Bar,King,WA,3,2,1,0.6666666666666666,0.3333333333333333,1,0,47.85565,-121.69743
Gold Bar,Snohomish,WA,101,78,23,0.7722772277227723,0.22772277227722773,6,1,47.85565,-121.69743000000001
Goldendale,Klickitat,WA,50,33,17,0.66,0.34,3,1,45.823,-120.82545
Goshen,Oldham,KY,1,0,1,0.0,1.0,1,0,38.40025,-85.57785
Graham,Pierce,WA,532,397,135,0.7462406015037594,0.25375939849624063,27,1,47.05703,-122.29477
Grand Coulee,Douglas,WA,2,0,2,0.0,1.0,1,0,47.94283,-119.00041
Grand Coulee,Grant,WA,7,5,2,0.7142857142857143,0.2857142857142857,1,0,47.94283,-119.00041
Grand Coulee,Lincoln,WA,6,2,4,0.3333333333333333,0.6666666666666666,1,0,47.942829999999994,-119.00041
Grandview,Benton,WA,5,3,2,0.6,0.4,1,0,46.25606,-119.90122999999998
Grandview,Yakima,WA,57,46,11,0.8070175438596491,0.19298245614035087,3,1,46.256060000000005,-119.90123
Granger,Yakima,WA,9,6,3,0.6666666666666666,0.3333333333333333,1,0,46.33949,-120.1871
Granite Falls,Snohomish,WA,206,164,42,0.7961165048543689,0.20388349514563106,11,1,48.08157,-121.96931
Grapeview,Mason,WA,98,73,25,0.7448979591836735,0.25510204081632654,5,1,47.32767,-122.82364
Grayland,Grays Harbor,WA,13,7,6,0.5384615384615384,0.46153846153846156,1,0,46.80933,-124.09366
Grays River,Wahkiakum,WA,5,4,1,0.8,0.2,1,0,46.35588,-123.61022
Great Lakes,Lake,IL,1,1,0,1.0,0.0,1,0,42.30849,-87.86222
Green Bay,Brown,WI,1,1,0,1.0,0.0,1,0,44.56969,-88.08615
Greenacres,Spokane,WA,227,177,50,0.7797356828193832,0.22026431718061673,12,1,47.65673127753304,-117.17401325991189
Greenbank,Island,WA,110,85,25,0.7727272727272727,0.22727272727272727,6,1,48.08827,-122.56817
Greene,Kent,RI,1,1,0,1.0,0.0,1,0,41.69661,-71.74609
Greenfield Center,Saratoga,NY,1,1,0,1.0,0.0,1,0,43.1284,-73.84643
Gresham,Multnomah,OR,1,1,0,1.0,0.0,1,0,45.48339,-122.38802
Grovetown,Columbia,GA,1,0,1,0.0,1.0,1,0,33.45236,-82.20362
Gunpowder,Harford,MD,1,1,0,1.0,0.0,1,0,39.40141,-76.29771
Hamilton,Skagit,WA,2,2,0,1.0,0.0,1,0,48.51786,-121.98741
Hanahan,Berkeley,SC,1,1,0,1.0,0.0,1,0,32.9035,-80.00804
Hanford,Kings,CA,3,3,0,1.0,0.0,1,0,36.3274,-119.64587999999999
Hanover,Anne Arundel,MD,1,1,0,1.0,0.0,1,0,39.15593,-76.72008
Hanscom Afb,Middlesex,MA,1,1,0,1.0,0.0,1,0,42.45982,-71.28309
Hansville,Kitsap,WA,101,81,20,0.801980198019802,0.19801980198019803,6,1,47.91795,-122.54758
Harrah,Yakima,WA,1,0,1,0.0,1.0,1,0,46.40365,-120.54352
Harrington,Lincoln,WA,3,2,1,0.6666666666666666,0.3333333333333333,1,0,47.4829,-118.25682
Harrison,Hudson,NJ,1,1,0,1.0,0.0,1,0,40.74623,-74.1584
Hartline,Grant,WA,2,1,1,0.5,0.5,1,0,47.69015,-119.10557
Hatton,Adams,WA,1,1,0,1.0,0.0,1,0,46.82616,-119.1742
Helendale,San Bernardino,CA,1,1,0,1.0,0.0,1,0,34.74494,-117.3221
Henderson,Clark,NV,1,1,0,1.0,0.0,1,0,35.95565,-115.14628
Henrico,Goochland,VA,1,1,0,1.0,0.0,1,0,37.61701,-77.63325
Henrico,Henrico,VA,1,0,1,0.0,1.0,1,0,37.51826,-77.37785
Herndon,Fairfax,VA,2,1,1,0.5,0.5,1,0,38.94847,-77.40753
Hialeah,Miami-Dade,FL,1,1,0,1.0,0.0,1,0,25.88976,-80.34792
Hidden Hills,Los Angeles,CA,1,0,1,0.0,1.0,1,0,34.15233,-118.69328
Highland Park,Lake,IL,1,1,0,1.0,0.0,1,0,42.18569,-87.7992
Holden Village,Chelan,WA,1,1,0,1.0,0.0,1,0,47.83985,-120.01454
Holloman Air Force Base,Otero,NM,1,0,1,0.0,1.0,1,0,32.83302,-106.06961
Holly Springs,Wake,NC,1,1,0,1.0,0.0,1,0,35.65242,-78.8336
Honolulu,Honolulu,HI,2,1,1,0.5,0.5,1,0,21.34183,-157.94001
Hoodsport,Mason,WA,70,52,18,0.7428571428571429,0.2571428571428571,4,1,47.40639,-123.14135
Hoquiam,Grays Harbor,WA,73,51,22,0.6986301369863014,0.3013698630136986,4,1,46.97982,-123.88689
Houston,Harris,TX,1,1,0,1.0,0.0,1,0,29.76078,-95.36952
Hunters,Stevens,WA,3,1,2,0.3333333333333333,0.6666666666666666,1,0,48.11777,-118.20299
Huntington Beach,Orange,CA,1,1,0,1.0,0.0,1,0,33.67893,-118.00157
Hunts Point,King,WA,70,64,6,0.9142857142857143,0.08571428571428572,4,1,47.61001,-122.18720000000002
Husum,Klickitat,WA,24,15,9,0.625,0.375,2,0,45.72776000000001,-121.48704
Hutto,Williamson,TX,1,1,0,1.0,0.0,1,0,30.54367,-97.54231
Hyde Park,Suffolk,MA,1,1,0,1.0,0.0,1,0,42.25641,-71.12395
Ilwaco,Pacific,WA,20,9,11,0.45,0.55,1,0,46.3088,-124.03547
Inchelium,Ferry,WA,1,1,0,1.0,0.0,1,0,48.29812,-118.19657
Incorporated,Pierce,WA,1,1,0,1.0,0.0,1,0,47.16196,-122.51495
Index,Snohomish,WA,8,6,2,0.75,0.25,1,0,47.841325,-121.68520000000001
Indianapolis,Marion,IN,1,1,0,1.0,0.0,1,0,39.91879,-86.13144
Indianola,Kitsap,WA,70,50,20,0.7142857142857143,0.2857142857142857,4,1,47.747856428571424,-122.52759999999998
Ione,Pend Oreille,WA,3,1,2,0.3333333333333333,0.6666666666666666,1,0,48.74170999999999,-117.41793
Irvine,Orange,CA,2,2,0,1.0,0.0,1,0,33.689575,-117.78875
Issaquah,King,WA,3753,3251,502,0.866240341060485,0.13375965893951505,188,1,47.53816475885957,-122.0202809965361
Jacksonville,Duval,FL,5,4,1,0.8,0.2,1,0,30.308619999999998,-81.60315800000001
Jbsa Ft Sam Houston,Bexar,TX,2,0,2,0.0,1.0,1,0,29.44909,-98.46206
Jbsa Lackland,Bexar,TX,2,2,0,1.0,0.0,1,0,29.38282,-98.61941
Joint Base Lewis Mcchord,Pierce,WA,156,118,38,0.7564102564102564,0.24358974358974358,8,1,47.08830525641026,-122.60693019230767
Joint Base Mdl,Burlington,NJ,2,0,2,0.0,1.0,1,0,40.03195,-74.57925
Junction City,Geary,KS,1,1,0,1.0,0.0,1,0,39.02826,-96.83011
Kalama,Cowlitz,WA,174,136,38,0.7816091954022989,0.21839080459770116,9,1,46.00813,-122.84226000000001
Kansas City,Platte,MO,1,0,1,0.0,1.0,1,0,39.23849,-94.67274
Kapowsin,Pierce,WA,5,5,0,1.0,0.0,1,0,46.98436,-122.23469
Kekaha,Kauai,HI,1,0,1,0.0,1.0,1,0,21.96605,-159.71288
Kelso,Cowlitz,WA,264,197,67,0.7462121212121212,0.2537878787878788,14,1,46.14424,-122.89867
Kenmore,King,WA,1436,1188,248,0.8272980501392758,0.17270194986072424,72,1,47.75892,-122.24368999999999
Kennewick,Benton,WA,1375,1007,368,0.7323636363636363,0.2676363636363636,69,1,46.20141755636364,-119.20205567999999
Kent,King,WA,4278,3594,684,0.8401122019635343,0.15988779803646563,214,1,47.380270946704066,-122.17428421458625
Kettle Falls,Ferry,WA,14,10,4,0.7142857142857143,0.2857142857142857,1,0,48.61053,-118.06211
Kettle Falls,Stevens,WA,33,22,11,0.6666666666666666,0.3333333333333333,2,0,48.61053,-118.06211
Keyport,Kitsap,WA,15,14,1,0.9333333333333333,0.06666666666666667,1,0,47.70251,-122.62316
Kihei,Maui,HI,2,2,0,1.0,0.0,1,0,20.7825,-156.46334
Killeen,Bell,TX,1,1,0,1.0,0.0,1,0,31.10584,-97.76342
Kingston,Kitsap,WA,368,279,89,0.7581521739130435,0.2418478260869565,19,1,47.797023315217395,-122.50013114130434
Kirkland,King,WA,7163,6038,1125,0.8429429010191261,0.15705709898087394,359,1,47.69787835264554,-122.21633522965237
Kissimmee,Osceola,FL,1,1,0,1.0,0.0,1,0,28.31615,-81.54549
Kittitas,Kittitas,WA,7,6,1,0.8571428571428571,0.14285714285714285,1,0,46.98647857142857,-120.43626285714286
Klickitat,Klickitat,WA,2,1,1,0.5,0.5,1,0,45.81756,-121.15176
Knoxville,Knox,TN,13,13,0,1.0,0.0,1,0,35.92265,-84.08646
La Center,Clark,WA,268,201,67,0.75,0.25,14,1,45.86156,-122.67248000000001
La Conner,Skagit,WA,136,99,37,0.7279411764705882,0.27205882352941174,7,1,48.38874,-122.49724000000002
La Mesa,San Diego,CA,1,0,1,0.0,1.0,1,0,32.76604,-117.02443
La Push,Clallam,WA,1,0,1,0.0,1.0,1,0,47.95014,-124.38543
Lacey,Thurston,WA,1414,1085,329,0.7673267326732673,0.23267326732673269,71,1,47.05246492220651,-122.7929906718529
Lacrosse,Whitman,WA,2,1,1,0.5,0.5,1,0,46.81612,-117.88137
Ladera Ranch,Orange,CA,1,1,0,1.0,0.0,1,0,33.57058,-117.63882
Lafayette,Contra Costa,CA,1,1,0,1.0,0.0,1,0,37.89077,-122.12813
Laguna Niguel,Orange,CA,1,1,0,1.0,0.0,1,0,33.56065,-117.70822
Lake Forest,Orange,CA,1,1,0,1.0,0.0,1,0,33.62826,-117.71743
Lake Forest Park,King,WA,906,721,185,0.7958057395143487,0.2041942604856512,46,1,47.75781,-122.3175
Lake Ozark,Miller,MO,1,1,0,1.0,0.0,1,0,38.18029,-92.6227
Lake Stevens,Snohomish,WA,2129,1796,333,0.8435885392202912,0.15641146077970877,107,1,48.01497,-122.06402
Lake Tapps,Pierce,WA,490,411,79,0.8387755102040816,0.16122448979591836,25,1,47.19175,-122.17144
Lake Zurich,Lake,IL,1,1,0,1.0,0.0,1,0,42.19747,-88.09126
Lakebay,Pierce,WA,132,100,32,0.7575757575757576,0.24242424242424243,7,1,47.25035,-122.75493
Lakeside,San Diego,CA,1,0,1,0.0,1.0,1,0,32.85402,-116.90456
Lakeview,Grant,WA,1,0,1,0.0,1.0,1,0,47.38898,-119.48323
Lakewood,Pierce,WA,1194,954,240,0.7989949748743719,0.20100502512562815,60,1,47.16230663316583,-122.5327974958124
Lamont,Whitman,WA,1,0,1,0.0,1.0,1,0,47.20139,-117.90629
Lancaster,Los Angeles,CA,1,1,0,1.0,0.0,1,0,34.68531,-118.18049
Langley,Island,WA,347,256,91,0.7377521613832853,0.2622478386167147,18,1,48.0398125648415,-122.40652714697407
Las Vegas,Clark,NV,6,4,2,0.6666666666666666,0.3333333333333333,1,0,36.16804333333334,-115.27930666666667
Latah,Spokane,WA,3,3,0,1.0,0.0,1,0,47.27966,-117.15511
Laurel,Howard,MD,1,1,0,1.0,0.0,1,0,39.11425,-76.83889
Leander,Travis,TX,1,1,0,1.0,0.0,1,0,30.57955,-97.85322
Leavenworth,Chelan,WA,370,296,74,0.8,0.2,19,1,47.59811851351351,-120.65739432432433
Lebam,Pacific,WA,3,3,0,1.0,0.0,1,0,46.68867,-123.72994
Leonardtown,St. Mary's,MD,1,1,0,1.0,0.0,1,0,38.29225,-76.6357
Lexington Park,St. Mary's,MD,1,1,0,1.0,0.0,1,0,38.26564,-76.45275
Liberty Lake,Spokane,WA,388,291,97,0.75,0.25,20,1,47.668260876288656,-117.10168891752578
Libertyville,Lake,IL,3,3,0,1.0,0.0,1,0,42.28785,-87.95342999999998
Lilliwaup,Mason,WA,15,13,2,0.8666666666666667,0.13333333333333333,1,0,47.47203,-123.0921
Lincoln,Lincoln,WA,4,2,2,0.5,0.5,1,0,47.82937,-118.41899
Lind,Adams,WA,3,3,0,1.0,0.0,1,0,46.97135,-118.61566
Lisle,DuPage,IL,3,3,0,1.0,0.0,1,0,41.79884,-88.07191
Long Beach,Pacific,WA,60,38,22,0.6333333333333333,0.36666666666666664,3,1,46.52915466666666,-123.79801533333332
Longbranch,Pierce,WA,28,19,9,0.6785714285714286,0.32142857142857145,2,0,47.21454,-122.75905
Longview,Cowlitz,WA,467,335,132,0.7173447537473233,0.2826552462526767,24,1,46.14681,-122.95058
Loon Lake,Stevens,WA,23,15,8,0.6521739130434783,0.34782608695652173,2,0,48.06288,-117.63730999999999
Lopez Is,San Juan,WA,2,1,1,0.5,0.5,1,0,48.52342,-122.91395
Lopez Island,San Juan,WA,178,127,51,0.7134831460674157,0.28651685393258425,9,1,48.52342,-122.91394999999999
Los Angeles,Los Angeles,CA,6,5,1,0.8333333333333334,0.16666666666666666,1,0,34.067550000000004,-118.33216833333334
Lummi Island,Whatcom,WA,61,42,19,0.6885245901639344,0.3114754098360656,4,1,48.72052,-122.68326
Lyle,Klickitat,WA,27,16,11,0.5925925925925926,0.4074074074074074,2,0,45.6939,-121.28544
Lyman,Skagit,WA,2,2,0,1.0,0.0,1,0,48.52525,-122.05976
Lynden,Whatcom,WA,343,259,84,0.7551020408163265,0.24489795918367346,18,1,48.9429,-122.45078999999998
Lynnwood,Snohomish,WA,4094,3555,539,0.8683439179286762,0.1316560820713239,205,1,47.84148845139228,-122.28326368343917
Mabton,Yakima,WA,12,9,3,0.75,0.25,1,0,46.21468166666667,-119.99043083333333
Madison,New Haven,CT,2,0,2,0.0,1.0,1,0,41.27973,-72.59507
Maitland,Orange,FL,1,1,0,1.0,0.0,1,0,28.6274,-81.36454
Malaga,Chelan,WA,33,29,4,0.8787878787878788,0.12121212121212122,2,0,47.37238,-120.20227
Malden,Whitman,WA,1,0,1,0.0,1.0,1,0,47.22875,-117.47511
Malott,Okanogan,WA,1,1,0,1.0,0.0,1,0,48.28279,-119.70617
Manassas,Manassas,VA,1,1,0,1.0,0.0,1,0,38.75125,-77.47086
Manassas,Prince William,VA,3,1,2,0.3333333333333333,0.6666666666666666,1,0,38.78013,-77.44985
Mansfield,Douglas,WA,6,5,1,0.8333333333333334,0.16666666666666666,1,0,47.85977833333333,-119.66148
Manson,Chelan,WA,114,87,27,0.7631578947368421,0.23684210526315788,6,1,47.8854,-120.16034
Maple Falls,Whatcom,WA,50,39,11,0.78,0.22,3,1,48.92368999999999,-122.07728000000002
Maple Valley,King,WA,2187,1876,311,0.8577960676726109,0.14220393232738912,110,1,47.3938614083219,-122.04442740283493
Marblemount,Skagit,WA,1,0,1,0.0,1.0,1,0,48.52739,-121.41604
Marietta,Cobb,GA,1,1,0,1.0,0.0,1,0,33.96956,-84.41144
Marina,Monterey,CA,1,0,1,0.0,1.0,1,0,36.68162,-121.80231
Marlin,Grant,WA,4,4,0,1.0,0.0,1,0,47.40718,-118.98504
Martha Lake,Snohomish,WA,1,1,0,1.0,0.0,1,0,47.85727,-122.27981
Martinez,Contra Costa,CA,1,1,0,1.0,0.0,1,0,38.01393,-122.13494
Maryhill,Klickitat,WA,1,0,1,0.0,1.0,1,0,45.823,-120.82545
Marysville,Snohomish,WA,2046,1722,324,0.841642228739003,0.15835777126099707,103,1,48.075416818181814,-122.17433819648093
Mattawa,Grant,WA,38,31,7,0.8157894736842105,0.18421052631578946,2,0,46.73779,-119.90008
Mazama,Okanogan,WA,28,23,5,0.8214285714285714,0.17857142857142858,2,0,48.59409999999999,-120.40814
Mc Lean,Fairfax,VA,1,0,1,0.0,1.0,1,0,38.93681,-77.18493
McChord AFB,Pierce,WA,1,0,1,0.0,1.0,1,0,47.12717,-122.52968
McCleary,Mason,WA,1,1,0,1.0,0.0,1,0,47.04946,-123.26405
Mccleary,Grays Harbor,WA,62,49,13,0.7903225806451613,0.20967741935483872,4,1,47.04946,-123.26405000000001
Mead,Spokane,WA,115,84,31,0.7304347826086957,0.26956521739130435,6,1,47.764746869565215,-117.35581513043479
Mechanicsburg,Cumberland,PA,1,1,0,1.0,0.0,1,0,40.24718,-76.99698
Medical Lake,Spokane,WA,76,52,24,0.6842105263157895,0.3157894736842105,4,1,47.571799078947365,-117.67846671052631
Medina,King,WA,417,363,54,0.8705035971223022,0.12949640287769784,21,1,47.61613,-122.23892
Melbourne,Brevard,FL,1,1,0,1.0,0.0,1,0,28.07875,-80.684
Memphis,Shelby,TN,1,0,1,0.0,1.0,1,0,35.15052,-90.04136
Menifee,Riverside,CA,1,1,0,1.0,0.0,1,0,33.7464,-117.17416
Menlo,Pacific,WA,13,8,5,0.6153846153846154,0.38461538461538464,1,0,46.68867,-123.72994
Mercer Island,King,WA,2988,2451,537,0.820281124497992,0.17971887550200802,150,1,47.57816,-122.21238
Mesa,Franklin,WA,11,8,3,0.7272727272727273,0.2727272727272727,1,0,46.57833,-119.00503000000002
Metaline,Pend Oreille,WA,1,0,1,0.0,1.0,1,0,48.85602,-117.38884
Methow,Okanogan,WA,6,5,1,0.8333333333333334,0.16666666666666666,1,0,48.09185,-119.952425
Mica,Spokane,WA,5,5,0,1.0,0.0,1,0,47.56436,-117.21611
Middleburg,Clay,FL,1,1,0,1.0,0.0,1,0,30.06677,-81.86674
Middletown,Frederick,MD,1,0,1,0.0,1.0,1,0,39.4439,-77.5464
Middletown,Newport,RI,3,1,2,0.3333333333333333,0.6666666666666666,1,0,41.51624,-71.29923
Midway City,Orange,CA,1,1,0,1.0,0.0,1,0,33.74469,-117.98647
Mill Creek,Snohomish,WA,1000,835,165,0.835,0.165,50,1,47.83448,-122.21061
Mill Valley,Marin,CA,2,2,0,1.0,0.0,1,0,37.90774,-122.54822
Milton,King,WA,33,24,9,0.7272727272727273,0.2727272727272727,2,0,47.24898,-122.32172
Milton,Pierce,WA,124,101,23,0.8145161290322581,0.18548387096774194,7,1,47.24898,-122.32172
Milwaukee,Milwaukee,WI,1,1,0,1.0,0.0,1,0,43.11859,-87.91072
Mineral,Lewis,WA,16,14,2,0.875,0.125,1,0,46.71902,-122.18768
Minneapolis,Hennepin,MN,1,1,0,1.0,0.0,1,0,44.94292,-93.28272
Moclips,Grays Harbor,WA,7,4,3,0.5714285714285714,0.42857142857142855,1,0,47.23932,-124.21349
Moncks Corner,Berkeley,SC,1,0,1,0.0,1.0,1,0,33.19673,-80.01243
Monitor,Chelan,WA,2,2,0,1.0,0.0,1,0,47.49049,-120.42429
Monroe,Snohomish,WA,1146,941,205,0.8211169284467714,0.17888307155322863,58,1,47.8526,-121.98087
Montclair,Essex,NJ,1,0,1,0.0,1.0,1,0,40.81242,-74.21281
Montesano,Grays Harbor,WA,110,76,34,0.6909090909090909,0.3090909090909091,6,1,46.983839999999994,-123.60076
Montgomery,Montgomery,AL,1,1,0,1.0,0.0,1,0,32.3804,-86.34036
Monument,El Paso,CO,1,1,0,1.0,0.0,1,0,39.09153,-104.87157
Moorpark,Ventura,CA,1,1,0,1.0,0.0,1,0,34.28706,-118.88221
Moreno Valley,Riverside,CA,1,1,0,1.0,0.0,1,0,33.94751,-117.22922
Morgan Hill,Santa Clara,CA,1,0,1,0.0,1.0,1,0,37.12608,-121.66194
Morrisville,Wake,NC,1,1,0,1.0,0.0,1,0,35.82305,-78.83015
Morton,Lewis,WA,22,18,4,0.8181818181818182,0.18181818181818182,2,0,46.55539999999999,-122.27513999999998
Moses Lake,Grant,WA,495,342,153,0.6909090909090909,0.3090909090909091,25,1,47.13196,-119.2771
Mossyrock,Lewis,WA,40,28,12,0.7,0.3,2,0,46.52948,-122.48445999999998
Mount Vernon,Skagit,WA,969,767,202,0.7915376676986584,0.2084623323013416,49,1,48.41608421052632,-122.33190368421052
Mountain View,Santa Clara,CA,2,2,0,1.0,0.0,1,0,37.3787,-122.076065
Mountlake Terrace,Snohomish,WA,668,549,119,0.8218562874251497,0.1781437125748503,34,1,47.78803,-122.31111
Moxee,Yakima,WA,47,34,13,0.723404255319149,0.2765957446808511,3,1,46.55724042553192,-120.39442361702127
Moyock,Currituck,NC,1,1,0,1.0,0.0,1,0,36.52287,-76.17614
Mukilteo,Snohomish,WA,1081,903,178,0.8353376503237743,0.16466234967622573,55,1,47.89908,-122.29196
Murdock,Klickitat,WA,6,4,2,0.6666666666666666,0.3333333333333333,1,0,45.680955000000004,-121.26208666666666
Murrieta,Riverside,CA,1,1,0,1.0,0.0,1,0,33.55015,-117.15952
Mystic,New London,CT,1,1,0,1.0,0.0,1,0,41.35061,-71.96032
Naches,Yakima,WA,36,24,12,0.6666666666666666,0.3333333333333333,2,0,46.72507833333333,-120.69233111111112
Nahcotta,Pacific,WA,5,3,2,0.6,0.4,1,0,46.49147,-124.04987000000001
Napavine,Lewis,WA,9,4,5,0.4444444444444444,0.5555555555555556,1,0,46.60485333333334,-122.92695333333333
Naselle,Pacific,WA,16,7,9,0.4375,0.5625,1,0,46.36545,-123.81154
Naselle,Wahkiakum,WA,6,4,2,0.6666666666666666,0.3333333333333333,1,0,46.36545,-123.81154
Nashville,Davidson,TN,1,1,0,1.0,0.0,1,0,36.11864,-86.78371
National City,San Diego,CA,2,2,0,1.0,0.0,1,0,32.67218,-117.10558
Neah Bay,Clallam,WA,8,6,2,0.75,0.25,1,0,48.36778,-124.62735
Nespelem,Okanogan,WA,1,1,0,1.0,0.0,1,0,48.16636,-118.97665
New York,New York,NY,3,3,0,1.0,0.0,1,0,40.77318666666667,-73.97636333333334
Newcastle,King,WA,1237,1085,152,0.8771220695230396,0.12287793047696038,62,1,47.494136087308,-122.16768270008085
Newington,Hartford,CT,1,1,0,1.0,0.0,1,0,41.69555,-72.71909
Newman Lake,Spokane,WA,60,40,20,0.6666666666666666,0.3333333333333333,3,1,47.724517666666664,-117.07025766666668
Newport,Lincoln,OR,1,1,0,1.0,0.0,1,0,44.63233,-124.05766
Newport,Newport,RI,1,0,1,0.0,1.0,1,0,41.49256,-71.31089
Newport,Pend Oreille,WA,58,47,11,0.8103448275862069,0.1896551724137931,3,1,48.18285,-117.04398
Niceville,Okaloosa,FL,1,0,1,0.0,1.0,1,0,30.52064,-86.48681
Nine Mile Falls,Spokane,WA,74,55,19,0.7432432432432432,0.25675675675675674,4,1,47.77429445945946,-117.54292054054054
Nine Mile Falls,Stevens,WA,83,65,18,0.7831325301204819,0.21686746987951808,5,1,47.77676,-117.54392
Nooksack,Whatcom,WA,14,13,1,0.9285714285714286,0.07142857142857142,1,0,48.92857,-122.32181
Nordland,Jefferson,WA,62,53,9,0.8548387096774194,0.14516129032258066,4,1,48.05105,-122.69107
Normandy Park,King,WA,341,266,75,0.7800586510263929,0.21994134897360704,18,1,47.46317809384165,-122.34013187683284
North Bend,King,WA,993,834,159,0.8398791540785498,0.16012084592145015,50,1,47.493649587109765,-121.78330755287008
North Bonneville,Skamania,WA,18,15,3,0.8333333333333334,0.16666666666666666,1,0,45.64119,-121.97
North Chesterfield,Chesterfield,VA,1,1,0,1.0,0.0,1,0,37.4995,-77.60119
North Cove,Pacific,WA,12,7,5,0.5833333333333334,0.4166666666666667,1,0,46.760799999999996,-124.0459
North Dartmouth,Bristol,MA,1,1,0,1.0,0.0,1,0,41.6405,-70.98066
North Las Vegas,Clark,NV,1,1,0,1.0,0.0,1,0,36.23353,-115.14764
Northport,Stevens,WA,1,1,0,1.0,0.0,1,0,48.91739,-117.77812
Northwestern Lake,Klickitat,WA,1,1,0,1.0,0.0,1,0,45.72776,-121.48704
Norwich,New London,CT,2,1,1,0.5,0.5,1,0,41.52676,-72.07568
Novato,Marin,CA,1,0,1,0.0,1.0,1,0,38.0993,-122.57707
O Fallon,St. Charles,MO,1,1,0,1.0,0.0,1,0,38.77011,-90.70251
Oak Harbor,Island,WA,715,500,215,0.6993006993006993,0.3006993006993007,36,1,48.29083686713287,-122.6468545734266
Oakesdale,Whitman,WA,4,3,1,0.75,0.25,1,0,47.12905,-117.24261
Oakville,Grays Harbor,WA,34,18,16,0.5294117647058824,0.47058823529411764,2,0,46.84077,-123.23285999999999
Oakville,Thurston,WA,2,1,1,0.5,0.5,1,0,46.84077,-123.23286
Ocean Park,Pacific,WA,51,29,22,0.5686274509803921,0.43137254901960786,3,1,46.48874156862745,-124.04995862745098
Ocean Shores,Grays Harbor,WA,199,135,64,0.678391959798995,0.32160804020100503,10,1,47.01156,-124.16408
Ocean Springs,Jackson,MS,1,1,0,1.0,0.0,1,0,30.41628,-88.80759
Oceanside,San Diego,CA,3,1,2,0.3333333333333333,0.6666666666666666,1,0,33.24082000000001,-117.30279666666667
Odenton,Anne Arundel,MD,1,1,0,1.0,0.0,1,0,39.0814,-76.69505
Odessa,Lincoln,WA,7,4,3,0.5714285714285714,0.42857142857142855,1,0,47.33323,-118.68999
Okanogan,Okanogan,WA,10,7,3,0.7,0.3,1,0,48.3654,-119.57959000000001
Olalla,Kitsap,WA,144,123,21,0.8541666666666666,0.14583333333333334,8,1,47.42602,-122.54729
Old Lyme,New London,CT,1,0,1,0.0,1.0,1,0,41.32392,-72.33425
Olga,San Juan,WA,59,44,15,0.7457627118644068,0.2542372881355932,3,1,48.62356,-122.8357
Olivehurst,Yuba,CA,1,1,0,1.0,0.0,1,0,39.10099,-121.55127
Olympia,Mason,WA,2,2,0,1.0,0.0,1,0,47.03779,-122.92333
Olympia,Thurston,WA,5956,4561,1395,0.7657824042981867,0.2342175957018133,298,1,47.03696436366689,-122.87533026024177
Omaha,Douglas,NE,3,1,2,0.3333333333333333,0.6666666666666666,1,0,41.210206666666664,-96.06342333333333
Omak,Okanogan,WA,29,12,17,0.41379310344827586,0.5862068965517241,2,0,48.41078,-119.52724
Onalaska,Lewis,WA,43,29,14,0.6744186046511628,0.32558139534883723,3,0,46.57812930232558,-122.70508930232558
Orcas,San Juan,WA,7,5,2,0.7142857142857143,0.2857142857142857,1,0,48.5982,-122.94093
Orcas Is,San Juan,WA,12,10,2,0.8333333333333334,0.16666666666666666,1,0,48.67569583333333,-122.91966916666667
Orient,Ferry,WA,2,2,0,1.0,0.0,1,0,48.8683,-118.20874
Orlando,Orange,FL,4,3,1,0.75,0.25,1,0,28.48899,-81.3167675
Orondo,Douglas,WA,73,62,11,0.8493150684931506,0.1506849315068493,4,1,47.62353,-120.22794999999999
Oroville,Okanogan,WA,22,18,4,0.8181818181818182,0.18181818181818182,2,0,48.93881,-119.43558000000002
Orting,Pierce,WA,258,197,61,0.7635658914728682,0.2364341085271318,13,1,47.09596,-122.20166
Othello,Adams,WA,63,49,14,0.7777777777777778,0.2222222222222222,4,1,46.82616,-119.1742
Othello,Franklin,WA,5,3,2,0.6,0.4,1,0,46.82616,-119.1742
Othello,Grant,WA,13,11,2,0.8461538461538461,0.15384615384615385,1,0,46.82616,-119.1742
Otis Orchards,Spokane,WA,67,50,17,0.746268656716418,0.2537313432835821,4,1,47.70789074626865,-117.11130626865672
Outlook,Yakima,WA,19,14,5,0.7368421052631579,0.2631578947368421,1,0,46.3294,-120.08512
Owings,Calvert,MD,1,0,1,0.0,1.0,1,0,38.71967,-76.60403
Oysterville,Pacific,WA,7,5,2,0.7142857142857143,0.2857142857142857,1,0,46.51614714285714,-124.04005571428571
Ozark,Christian,MO,1,0,1,0.0,1.0,1,0,37.02134,-93.20633
Pacific,King,WA,119,89,30,0.7478991596638656,0.25210084033613445,6,1,47.265368487394966,-122.24664151260505
Pacific,Pierce,WA,4,4,0,1.0,0.0,1,0,47.26465,-122.24692
Pacific Beach,Grays Harbor,WA,34,28,6,0.8235294117647058,0.17647058823529413,2,0,47.20886,-124.20177
Pacific Grove,Monterey,CA,1,0,1,0.0,1.0,1,0,36.61956,-121.91849
Pacific Palisades,Los Angeles,CA,1,1,0,1.0,0.0,1,0,34.0471,-118.52688
Pacifica,San Mateo,CA,1,1,0,1.0,0.0,1,0,37.63527,-122.492
Packwood,Lewis,WA,36,24,12,0.6666666666666666,0.3333333333333333,2,0,46.60602222222222,-121.68523833333332
Palisades,Douglas,WA,4,4,0,1.0,0.0,1,0,47.41492,-119.9176
Palm Springs,Riverside,CA,1,1,0,1.0,0.0,1,0,33.77238,-116.54548
Palo Alto,Santa Clara,CA,1,1,0,1.0,0.0,1,0,37.44721,-122.12568
Palouse,Whitman,WA,29,20,9,0.6896551724137931,0.3103448275862069,2,0,46.91008,-117.0768
Parker,Douglas,CO,1,0,1,0.0,1.0,1,0,39.51182,-104.79915
Parker,Yakima,WA,2,1,1,0.5,0.5,1,0,46.50345,-120.4672
Parkland,Pierce,WA,152,112,40,0.7368421052631579,0.2631578947368421,8,1,47.09665,-122.37747
Pasadena,Anne Arundel,MD,1,1,0,1.0,0.0,1,0,39.10969,-76.57287
Pasc,Franklin,WA,3,2,1,0.6666666666666666,0.3333333333333333,1,0,46.23542,-119.09467
Pasco,Franklin,WA,959,745,214,0.7768508863399375,0.22314911366006257,48,1,46.23542,-119.09467
Pateros,Okanogan,WA,8,5,3,0.625,0.375,1,0,48.05502,-119.89975
Paterson,Benton,WA,1,1,0,1.0,0.0,1,0,45.93967,-119.60311
Pe Ell,Lewis,WA,4,4,0,1.0,0.0,1,0,46.57001,-123.29831
Pensacola,Escambia,FL,2,1,1,0.5,0.5,1,0,30.44136,-87.28368
Peoria,Maricopa,AZ,1,1,0,1.0,0.0,1,0,33.7534,-112.33016
Peshastin,Chelan,WA,26,20,6,0.7692307692307693,0.23076923076923078,2,0,47.56805,-120.60364000000001
Philadelphia,Philadelphia,PA,1,0,1,0.0,1.0,1,0,39.95222,-75.16218
Phoenix,Maricopa,AZ,3,3,0,1.0,0.0,1,0,33.600069999999995,-112.09209666666668
Pike Road,Montgomery,AL,1,0,1,0.0,1.0,1,0,32.31535,-86.04724
Pittsburgh,Allegheny,PA,2,2,0,1.0,0.0,1,0,40.499855,-80.006755
Plano,Collin,TX,1,0,1,0.0,1.0,1,0,33.08178,-96.82128
Plymouth,Benton,WA,1,0,1,0.0,1.0,1,0,45.93559,-119.35107
Pocatello,Bannock,ID,1,1,0,1.0,0.0,1,0,42.91792,-112.46167
Point Roberts,Whatcom,WA,78,62,16,0.7948717948717948,0.20512820512820512,4,1,48.98867,-123.05687999999999
Pomeroy,Garfield,WA,3,0,3,0.0,1.0,1,0,46.473980000000005,-117.58936999999999
Port Angeles,Clallam,WA,664,462,202,0.6957831325301205,0.3042168674698795,34,1,48.121497108433736,-123.44012256024098
Port Gamble,Kitsap,WA,3,1,2,0.3333333333333333,0.6666666666666666,1,0,47.736889999999995,-122.64681
Port Hadlock,Jefferson,WA,71,52,19,0.7323943661971831,0.2676056338028169,4,1,48.03591,-122.75878000000002
Port Hueneme,Ventura,CA,1,1,0,1.0,0.0,1,0,34.15016,-119.19558
Port Ludlow,Jefferson,WA,228,167,61,0.7324561403508771,0.2675438596491228,12,1,47.92989,-122.68475
Port Orchard,Kitsap,WA,1683,1268,415,0.7534165181224005,0.24658348187759951,85,1,47.521305258467024,-122.66388108140225
Port Townsend,Jefferson,WA,812,584,228,0.7192118226600985,0.28078817733990147,41,1,48.1210652955665,-122.7726308004926
Portland,Multnomah,OR,6,5,1,0.8333333333333334,0.16666666666666666,1,0,45.520785,-122.60963666666667
Portsmouth,Portsmouth,VA,2,0,2,0.0,1.0,1,0,36.82981,-76.34389
Portsmouth,Rockingham,NH,2,2,0,1.0,0.0,1,0,43.07496,-70.76509
Post Falls,Kootenai,ID,2,2,0,1.0,0.0,1,0,47.71189,-116.9481
Potomac,Montgomery,MD,1,0,1,0.0,1.0,1,0,39.01796,-77.20884
Poulsbo,Kitsap,WA,1046,771,275,0.737093690248566,0.26290630975143403,53,1,47.73688496175909,-122.64671976099426
Pouslbo,Kitsap,WA,6,5,1,0.8333333333333334,0.16666666666666666,1,0,47.736889999999995,-122.64681
Prattville,Autauga,AL,3,1,2,0.3333333333333333,0.6666666666666666,1,0,32.461756666666666,-86.44115
Prescott,Walla Walla,WA,2,2,0,1.0,0.0,1,0,46.29961,-118.31243
Preston,King,WA,39,31,8,0.7948717948717948,0.20512820512820512,2,0,47.536090256410255,-122.00491051282053
Preston,New London,CT,1,0,1,0.0,1.0,1,0,41.52951,-71.98967
Princeton,Mercer,NJ,1,0,1,0.0,1.0,1,0,40.37524,-74.60896
Pros,Benton,WA,1,1,0,1.0,0.0,1,0,46.20663,-119.76904
Prosser,Benton,WA,109,83,26,0.7614678899082569,0.23853211009174313,6,1,46.20663,-119.76904
Prosser,Yakima,WA,1,1,0,1.0,0.0,1,0,46.20663,-119.76904
Providence,Providence,RI,1,1,0,1.0,0.0,1,0,41.81497,-71.44666
Pullman,Whitman,WA,407,279,128,0.6855036855036855,0.3144963144963145,21,1,46.73015,-117.18147
Puyallup,Pierce,WA,2112,1645,467,0.7788825757575758,0.22111742424242425,106,1,47.154192850378784,-122.28961636363636
Quilcene,Jefferson,WA,62,49,13,0.7903225806451613,0.20967741935483872,4,1,47.82642,-122.8775
Quinault,Grays Harbor,WA,5,3,2,0.6,0.4,1,0,47.46807,-123.84618
Quincy,Douglas,WA,1,1,0,1.0,0.0,1,0,47.23748,-119.85338
Quincy,Grant,WA,150,117,33,0.78,0.22,8,1,47.23748,-119.85338000000002
Raeford,Hoke,NC,1,1,0,1.0,0.0,1,0,34.9786,-79.22405
Rainier,Thurston,WA,83,56,27,0.6746987951807228,0.3253012048192771,5,1,46.88897,-122.68993
Rancho Cucamonga,San Bernardino,CA,1,1,0,1.0,0.0,1,0,34.10942,-117.53441
Randle,Lewis,WA,7,3,4,0.42857142857142855,0.5714285714285714,1,0,46.53534,-121.95584999999998
Rathdrum,Kootenai,ID,1,0,1,0.0,1.0,1,0,47.81137,-116.89644
Ravensdale,King,WA,130,102,28,0.7846153846153846,0.2153846153846154,7,1,47.355500615384614,-121.98620261538463
Raymond,Pacific,WA,41,30,11,0.7317073170731707,0.2682926829268293,3,0,46.68867,-123.72994
Reardan,Lincoln,WA,6,5,1,0.8333333333333334,0.16666666666666666,1,0,47.66951,-117.87704000000001
Reardan,Spokane,WA,4,2,2,0.5,0.5,1,0,47.66951,-117.87704
Redmond,King,WA,8653,7539,1114,0.8712585230555877,0.12874147694441235,433,1,47.681674658499944,-122.1066532520513
Redwood City,San Mateo,CA,1,1,0,1.0,0.0,1,0,37.4845,-122.22772
Renton,King,WA,6893,5216,1677,0.7567097054983316,0.24329029450166836,345,1,47.470953103148126,-122.15615817060787
Republic,Ferry,WA,17,11,6,0.6470588235294118,0.35294117647058826,1,0,48.64426,-118.73748
Reston,Fairfax,VA,1,0,1,0.0,1.0,1,0,38.95979,-77.35453
Rice,Stevens,WA,7,5,2,0.7142857142857143,0.2857142857142857,1,0,48.42934,-118.16165
Rich,Benton,WA,1,1,0,1.0,0.0,1,0,46.27391,-119.27372
Richland,Benton,WA,1431,1027,404,0.7176799440950384,0.28232005590496156,72,1,46.28521389238295,-119.2724467085954
Ridgefield,Clark,WA,1301,1007,294,0.7740199846272099,0.22598001537279017,66,1,45.81539,-122.74595
Rineyville,Hardin,KY,1,1,0,1.0,0.0,1,0,37.75035,-85.971
Rio Rico,Santa Cruz,AZ,1,1,0,1.0,0.0,1,0,31.47521,-110.98234
Ritzville,Adams,WA,26,18,8,0.6923076923076923,0.3076923076923077,2,0,47.1274,-118.37977
Riverside,Okanogan,WA,4,3,1,0.75,0.25,1,0,48.50119,-119.50853
Riverside,Riverside,CA,2,2,0,1.0,0.0,1,0,33.913595,-117.48814
Rochester,Beaver,PA,1,1,0,1.0,0.0,1,0,40.70122,-80.2858
Rochester,Lewis,WA,11,7,4,0.6363636363636364,0.36363636363636365,1,0,46.82175,-123.08743
Rochester,Olmsted,MN,1,1,0,1.0,0.0,1,0,44.03008,-92.47868
Rochester,Thurston,WA,152,111,41,0.7302631578947368,0.26973684210526316,8,1,46.82175,-123.08743
Rock Island,Douglas,WA,23,17,6,0.7391304347826086,0.2608695652173913,2,0,47.37163,-120.14545
Rockford,Spokane,WA,7,7,0,1.0,0.0,1,0,47.45227,-117.13261
Rockport,Skagit,WA,1,1,0,1.0,0.0,1,0,48.48758,-121.59274
Ronald,Kittitas,WA,64,50,14,0.78125,0.21875,4,1,47.23781,-121.02627
Roosevelt,Klickitat,WA,1,0,1,0.0,1.0,1,0,45.823,-120.82545
Rosalia,Spokane,WA,2,2,0,1.0,0.0,1,0,47.23445,-117.37046
Rosalia,Whitman,WA,10,6,4,0.6,0.4,1,0,47.23445,-117.37046000000001
Rosburg,Wahkiakum,WA,4,3,1,0.75,0.25,1,0,46.33397,-123.6386
Roseville,Placer,CA,3,3,0,1.0,0.0,1,0,38.79001,-121.30522
Roslyn,Kittitas,WA,30,25,5,0.8333333333333334,0.16666666666666666,2,0,47.226721999999995,-120.99808333333334
Roy,Pierce,WA,187,144,43,0.7700534759358288,0.22994652406417113,10,1,47.00328,-122.54332
Royal City,Grant,WA,30,24,6,0.8,0.2,2,0,46.90248,-119.63136
Ruston,Pierce,WA,43,30,13,0.6976744186046512,0.3023255813953488,3,0,47.29238,-122.51134
Ryderwood,Cowlitz,WA,3,2,1,0.6666666666666666,0.3333333333333333,1,0,46.37331,-123.04373
Sacramento,Sacramento,CA,1,1,0,1.0,0.0,1,0,38.6244,-121.49839
Saginaw,Saginaw,MI,1,0,1,0.0,1.0,1,0,43.44477,-84.02466
Saint Jacob,Madison,IL,1,1,0,1.0,0.0,1,0,38.71617,-89.76838
Saint Louis,St. Louis,MO,2,2,0,1.0,0.0,1,0,38.68848,-90.26094
Saint Marys,Camden,GA,1,1,0,1.0,0.0,1,0,30.73115,-81.54609
Saint Robert,Pulaski,MO,1,1,0,1.0,0.0,1,0,37.82245,-92.14145
Salem,Polk,OR,2,1,1,0.5,0.5,1,0,44.94726,-123.0566
Salkum,Lewis,WA,5,5,0,1.0,0.0,1,0,46.53186,-122.6306
Salt Lake City,Salt Lake,UT,2,0,2,0.0,1.0,1,0,40.658885,-111.93832
Sammamish,King,WA,7021,6126,895,0.8725252812989602,0.12747471870103974,352,1,47.60075613445378,-122.0243654393961
San Antonio,Bexar,TX,1,1,0,1.0,0.0,1,0,29.44539,-98.72277
San Antonio,Medina,TX,1,1,0,1.0,0.0,1,0,29.44539,-98.72277
San Carlos,San Mateo,CA,1,0,1,0.0,1.0,1,0,37.50494,-122.26281
San Diego,San Diego,CA,17,13,4,0.7647058823529411,0.23529411764705882,1,0,32.730787647058825,-117.16278529411765
San Francisco,San Francisco,CA,4,3,1,0.75,0.25,1,0,37.7368625,-122.4547575
San Jose,Santa Clara,CA,4,3,1,0.75,0.25,1,0,37.3279075,-121.93395749999999
San Juan Is,San Juan,WA,2,2,0,1.0,0.0,1,0,48.53448,-123.01648
San Mateo,San Mateo,CA,1,1,0,1.0,0.0,1,0,37.55646,-122.32988
San Rafael,Marin,CA,1,0,1,0.0,1.0,1,0,37.97463,-122.53289
Sanford,Harnett,NC,1,1,0,1.0,0.0,1,0,35.45329,-79.14692
Santa Clara,Santa Clara,CA,3,2,1,0.6666666666666666,0.3333333333333333,1,0,37.35496,-121.97340000000001
Sarasota,Sarasota,FL,1,1,0,1.0,0.0,1,0,27.27335,-82.559
Saratoga Springs,Saratoga,NY,1,0,1,0.0,1.0,1,0,43.08412,-73.78441
Scottsdale,Maricopa,AZ,4,2,2,0.5,0.5,1,0,33.5726575,-111.923425
Seabeck,Kitsap,WA,136,99,37,0.7279411764705882,0.27205882352941174,7,1,47.64509,-122.81585000000001
Seaside,Monterey,CA,5,3,2,0.6,0.4,1,0,36.60404,-121.85349999999998
Seatac,King,WA,1728,1073,655,0.6209490740740741,0.37905092592592593,87,1,47.448277054398154,-122.31261842592593
Seattle,King,AP,3,2,1,0.6666666666666666,0.3333333333333333,1,0,47.67857999999999,-122.13158
Seattle,King,BC,2,1,1,0.5,0.5,1,0,47.67858,-122.13158
Seattle,King,NS,1,1,0,1.0,0.0,1,0,47.67858,-122.13158
Seattle,King,WA,39768,31703,8065,0.797198752766043,0.20280124723395695,1989,1,47.63093462004627,-122.33795873692415
Seaview,Pacific,WA,11,5,6,0.45454545454545453,0.5454545454545454,1,0,46.333639999999995,-124.05117909090909
Sedro Woolley,Skagit,WA,19,13,6,0.6842105263157895,0.3157894736842105,1,0,48.50858,-122.23857000000001
Sedro Woolley,Whatcom,WA,56,43,13,0.7678571428571429,0.23214285714285715,3,1,48.50858,-122.23857
Sedro-Woolley,Skagit,WA,273,190,83,0.6959706959706959,0.304029304029304,14,1,48.50858,-122.23856999999998
Sekiu,Clallam,WA,6,4,2,0.6666666666666666,0.3333333333333333,1,0,48.25978,-124.30041
Selah,Yakima,WA,152,114,38,0.75,0.25,8,1,46.65405,-120.53144999999999
Sequim,Clallam,WA,816,581,235,0.7120098039215687,0.28799019607843135,41,1,48.07965,-123.10367
Sequim,Jefferson,WA,11,7,4,0.6363636363636364,0.36363636363636365,1,0,48.07965000000001,-123.10366999999998
Seven Bays,Lincoln,WA,3,2,1,0.6666666666666666,0.3333333333333333,1,0,47.654050000000005,-118.14913
Shaw Island,San Juan,WA,17,11,6,0.6470588235294118,0.35294117647058826,1,0,48.58348,-122.92990999999999
Shelton,Mason,WA,594,424,170,0.7138047138047138,0.28619528619528617,30,1,47.21248,-123.10565
Shoreline,King,WA,2720,2215,505,0.8143382352941176,0.18566176470588236,136,1,47.73185345955882,-122.34445334558824
Shoreline,Snohomish,WA,3,3,0,1.0,0.0,1,0,47.72238000000001,-122.36498
Shreveport,Caddo,LA,1,1,0,1.0,0.0,1,0,32.4169,-93.69821
Silver Creek,Lewis,WA,14,10,4,0.7142857142857143,0.2857142857142857,1,0,46.527930000000005,-122.60209
Silver Lake,Cowlitz,WA,1,1,0,1.0,0.0,1,0,46.29694,-122.8112
Silverdale,Kitsap,WA,552,433,119,0.7844202898550725,0.21557971014492755,28,1,47.65431697463769,-122.69370072463768
Silverlake,Cowlitz,WA,34,26,8,0.7647058823529411,0.23529411764705882,2,0,46.29694,-122.81119999999999
Skamokawa,Wahkiakum,WA,9,8,1,0.8888888888888888,0.1111111111111111,1,0,46.2716,-123.45797
Skokie,Cook,IL,1,1,0,1.0,0.0,1,0,42.02634,-87.75545
Skykomish,King,WA,8,7,1,0.875,0.125,1,0,47.71192,-121.35912
Smith Creek,Pacific,WA,1,1,0,1.0,0.0,1,0,46.68867,-123.72994
Smiths Station,Lee,AL,1,1,0,1.0,0.0,1,0,32.54086,-85.08963
Snohomish,Snohomish,WA,2887,2386,501,0.8264634568756495,0.17353654312435055,145,1,47.88978235192241,-122.11824714582612
Snoqualmie,King,WA,1228,1034,194,0.8420195439739414,0.15798045602605862,62,1,47.52889446254072,-121.82713765472312
Snoqualmie Pass,King,WA,6,4,2,0.6666666666666666,0.3333333333333333,1,0,47.46856333333333,-121.65941
Snoqualmie Pass,Kittitas,WA,35,27,8,0.7714285714285715,0.22857142857142856,2,0,47.41873,-121.41203
Snowden,Klickitat,WA,23,13,10,0.5652173913043478,0.43478260869565216,2,0,45.727759999999996,-121.48704
Soap Lake,Grant,WA,31,16,15,0.5161290322580645,0.4838709677419355,2,0,47.38898,-119.48323
Somerville,Middlesex,MA,1,1,0,1.0,0.0,1,0,42.39721,-71.10391
South Bend,Pacific,WA,10,8,2,0.8,0.2,1,0,46.673088,-123.78773900000002
South Cle Elum,Kittitas,WA,7,5,2,0.7142857142857143,0.2857142857142857,1,0,47.18891,-120.94822
South Hill,Pierce,WA,827,663,164,0.8016928657799275,0.19830713422007254,42,1,47.12831327690447,-122.2911593107618
South Prairie,Pierce,WA,6,4,2,0.6666666666666666,0.3333333333333333,1,0,47.13953999999999,-122.09624000000001
Southlake,Tarrant,TX,1,1,0,1.0,0.0,1,0,32.94256,-97.13121
Spanaway,Pierce,WA,664,506,158,0.7620481927710844,0.23795180722891565,34,1,47.06512,-122.41046
Spangle,Spokane,WA,16,9,7,0.5625,0.4375,1,0,47.432851875000004,-117.39248125
Sparks,Washoe,NV,2,2,0,1.0,0.0,1,0,39.58228,-119.72093
Spokane,Spokane,WA,4208,3012,1196,0.7157794676806084,0.28422053231939165,211,1,47.66699634980989,-117.40582308222433
Spokane Valley,Spokane,WA,1064,681,383,0.6400375939849624,0.3599624060150376,54,1,47.66483454887218,-117.23320569548872
Sprague,Lincoln,WA,4,1,3,0.25,0.75,1,0,47.30036,-117.97378
Spring Lake,Harnett,NC,1,1,0,1.0,0.0,1,0,35.17258,-78.97582
Springdale,Stevens,WA,4,3,1,0.75,0.25,1,0,48.05738,-117.74137
Springfield,Fairfax,VA,10,7,3,0.7,0.3,1,0,38.784346,-77.21649
St John,Whitman,WA,2,2,0,1.0,0.0,1,0,47.09185,-117.5821
Stafford,Stafford,VA,2,2,0,1.0,0.0,1,0,38.449619999999996,-77.40911
Stanhope,Sussex,NJ,1,1,0,1.0,0.0,1,0,40.90351,-74.7089
Stanwood,Skagit,WA,1,1,0,1.0,0.0,1,0,48.24159,-122.37265
Stanwood,Snohomish,WA,650,512,138,0.7876923076923077,0.2123076923076923,33,1,48.24138795384616,-122.37233469230767
Startup,Snohomish,WA,1,1,0,1.0,0.0,1,0,47.8623,-121.81688
Steilacoom,Pierce,WA,219,164,55,0.7488584474885844,0.2511415525114155,11,1,47.173030000000004,-122.59802
Stevenson,Skamania,WA,64,49,15,0.765625,0.234375,4,1,45.69417,-121.88258
Stratford,Grant,WA,1,1,0,1.0,0.0,1,0,47.4263,-119.27844
Streamwood,Cook,IL,1,0,1,0.0,1.0,1,0,42.0121,-88.17558
Suffolk,Suffolk,VA,2,1,1,0.5,0.5,1,0,36.87704,-76.42047
Sultan,Snohomish,WA,303,260,43,0.858085808580858,0.1419141914191419,16,1,47.8623,-121.81688
Sumas,Whatcom,WA,23,16,7,0.6956521739130435,0.30434782608695654,2,0,48.99976,-122.26495000000001
Summersville,Texas,MO,1,1,0,1.0,0.0,1,0,37.17962,-91.65676
Sumner,Pierce,WA,279,236,43,0.8458781362007168,0.15412186379928317,14,1,47.2022,-122.23972
Sunnyside,Yakima,WA,105,78,27,0.7428571428571429,0.2571428571428571,6,1,46.32379,-120.00975999999999
Sunnyvale,Santa Clara,CA,2,2,0,1.0,0.0,1,0,37.382194999999996,-122.029935
Suquamish,Kitsap,WA,99,74,25,0.7474747474747475,0.25252525252525254,5,1,47.73162,-122.55242
Surfside,Pacific,WA,37,21,16,0.5675675675675675,0.43243243243243246,2,0,46.49147,-124.04987
Suwanee,Gwinnett,GA,1,1,0,1.0,0.0,1,0,34.05744,-84.06478
Tacoma,Pierce,WA,5569,4295,1274,0.7712336146525408,0.22876638534745916,279,1,47.23922315496499,-122.45422008798707
Taholah,Grays Harbor,WA,9,4,5,0.4444444444444444,0.5555555555555556,1,0,47.34257,-124.28628
Tahuya,Mason,WA,46,40,6,0.8695652173913043,0.13043478260869565,3,1,47.37733,-123.04061
Talladega,Talladega,AL,1,0,1,0.0,1.0,1,0,33.43455,-86.10242
Tampa,Hillsborough,FL,4,2,2,0.5,0.5,1,0,27.983165,-82.413285
Taylor,Wayne,MI,1,1,0,1.0,0.0,1,0,42.22659,-83.26284
Tekoa,Whitman,WA,3,2,1,0.6666666666666666,0.3333333333333333,1,0,47.22679,-117.07351
Temecula,Riverside,CA,1,0,1,0.0,1.0,1,0,33.53605,-117.15461
Tempe,Maricopa,AZ,1,0,1,0.0,1.0,1,0,33.42554,-111.93722
Tenino,Thurston,WA,124,91,33,0.7338709677419355,0.2661290322580645,7,1,46.85752,-122.85135
The Dalles,Wasco,OR,1,0,1,0.0,1.0,1,0,45.60172,-121.18329
Thorp,Kittitas,WA,10,8,2,0.8,0.2,1,0,47.045954,-120.65446100000001
Tieton,Yakima,WA,19,18,1,0.9473684210526315,0.05263157894736842,1,0,46.70406105263158,-120.7524789473684
Timnath,Larimer,CO,1,1,0,1.0,0.0,1,0,40.52978,-104.98231
Toano,James City,VA,1,1,0,1.0,0.0,1,0,37.38104,-76.80545
Tokeland,Pacific,WA,4,1,3,0.25,0.75,1,0,46.71227,-123.99814
Toledo,Lewis,WA,51,41,10,0.803921568627451,0.19607843137254902,3,1,46.44067,-122.84784
Tomah,Monroe,WI,1,1,0,1.0,0.0,1,0,43.97266,-90.50477
Tonasket,Okanogan,WA,23,11,12,0.4782608695652174,0.5217391304347826,2,0,48.70859999999999,-119.43681
Tooele,Tooele,UT,1,1,0,1.0,0.0,1,0,40.53408,-112.29849
Toppenish,Yakima,WA,30,29,1,0.9666666666666667,0.03333333333333333,2,0,46.37508,-120.31298
Torrance,Los Angeles,CA,1,1,0,1.0,0.0,1,0,33.86658,-118.34381
Touchet,Walla Walla,WA,13,10,3,0.7692307692307693,0.23076923076923078,1,0,46.042379999999994,-118.66923
Toutle,Cowlitz,WA,8,7,1,0.875,0.125,1,0,46.32447,-122.73237
Trabuco Canyon,Orange,CA,1,1,0,1.0,0.0,1,0,33.66169,-117.59028
Travis Afb,Solano,CA,1,1,0,1.0,0.0,1,0,38.27153,-121.93303
Trout Lake,Klickitat,WA,41,28,13,0.6829268292682927,0.3170731707317073,3,0,45.99588,-121.52529000000001
Tucson,Pima,AZ,1,1,0,1.0,0.0,1,0,32.30568,-110.93691
Tukwila,King,WA,1393,864,529,0.6202440775305097,0.3797559224694903,70,1,47.461805936827,-122.30373929648242
Tulalip,Snohomish,WA,6,5,1,0.8333333333333334,0.16666666666666666,1,0,48.110260000000004,-122.16770000000001
Tumtum,Stevens,WA,1,1,0,1.0,0.0,1,0,47.8927,-117.67024
Tumwater,Thurston,WA,959,726,233,0.7570385818561001,0.2429614181438999,48,1,47.02985272158499,-122.89965740354536
Turlock,Stanislaus,CA,1,1,0,1.0,0.0,1,0,37.53381,-120.85353
Twisp,Okanogan,WA,65,45,20,0.6923076923076923,0.3076923076923077,4,1,48.3652,-120.1231
Underwood,Skamania,WA,39,23,16,0.5897435897435898,0.41025641025641024,2,0,45.72902,-121.52357
Union,Mason,WA,72,51,21,0.7083333333333334,0.2916666666666667,4,1,47.35689,-123.09944000000002
Union Gap,Yakima,WA,21,16,5,0.7619047619047619,0.23809523809523808,2,0,46.55351,-120.4778
Uniontown,Whitman,WA,4,3,1,0.75,0.25,1,0,46.5462975,-117.09802499999999
University Place,Pierce,WA,971,742,229,0.7641606591143152,0.23583934088568487,49,1,47.22207117404738,-122.5345315653965
Upper Marlboro,Prince George's,MD,4,2,2,0.5,0.5,1,0,38.85427,-76.78234499999999
Usk,Pend Oreille,WA,2,1,1,0.5,0.5,1,0,48.31375,-117.28054
Vacaville,Solano,CA,1,1,0,1.0,0.0,1,0,38.35218,-121.99263
Vader,Lewis,WA,12,6,6,0.5,0.5,1,0,46.40201,-122.95015
Valley,Stevens,WA,11,8,3,0.7272727272727273,0.2727272727272727,1,0,48.176230000000004,-117.72554999999998
Valleyford,Spokane,WA,29,22,7,0.7586206896551724,0.2413793103448276,2,0,47.53970413793103,-117.24328241379311
Vancouver,Clark,WA,9322,6865,2457,0.736429950654366,0.263570049345634,467,1,45.66207928341558,-122.5949788371594
Vantage,Kittitas,WA,2,2,0,1.0,0.0,1,0,46.94468,-119.9899
Vashon,King,WA,831,635,196,0.7641395908543923,0.2358604091456077,42,1,47.44929,-122.4573
Vass,Moore,NC,1,1,0,1.0,0.0,1,0,35.25777,-79.28188
Vaughn,Pierce,WA,36,29,7,0.8055555555555556,0.19444444444444445,2,0,47.34347,-122.76355
Ventura,Ventura,CA,1,1,0,1.0,0.0,1,0,34.27938,-119.29311
Veradale,Spokane,WA,87,60,27,0.6896551724137931,0.3103448275862069,5,1,47.6570567816092,-117.19532103448276
Vienna,Fairfax,VA,2,0,2,0.0,1.0,1,0,38.90063,-77.26399
Virginia Beach,Virginia Beach,VA,8,6,2,0.75,0.25,1,0,36.82631875,-76.130155
Wahkiacus,Klickitat,WA,2,0,2,0.0,1.0,1,0,45.84657,-121.10717
Waitsburg,Walla Walla,WA,13,9,4,0.6923076923076923,0.3076923076923077,1,0,46.27013,-118.15448
Waldron,San Juan,WA,5,5,0,1.0,0.0,1,0,48.68843,-123.03598
Walla Walla,Walla Walla,WA,534,358,176,0.6704119850187266,0.3295880149812734,27,1,46.07068,-118.34261
Walla Walla Co,Walla Walla,WA,2,0,2,0.0,1.0,1,0,46.07068,-118.34261
Walnut Creek,Contra Costa,CA,2,1,1,0.5,0.5,1,0,37.90914,-122.03751
Wapato,Yakima,WA,32,26,6,0.8125,0.1875,2,0,46.44779,-120.42083
Warden,Grant,WA,16,11,5,0.6875,0.3125,1,0,46.96971,-119.04573
Warner Robins,Houston,GA,1,1,0,1.0,0.0,1,0,32.61857,-83.59357
Warren,Macomb,MI,6,6,0,1.0,0.0,1,0,42.52509,-83.04914
Warrensburg,Johnson,MO,1,1,0,1.0,0.0,1,0,38.77122,-93.7412
Washington,District of Columbia,DC,7,6,1,0.8571428571428571,0.14285714285714285,1,0,38.893815714285715,-77.00749714285713
Washougal,Clark,WA,739,539,200,0.7293640054127198,0.2706359945872801,37,1,45.57923,-122.35341
Washougal,Skamania,WA,91,68,23,0.7472527472527473,0.25274725274725274,5,1,45.57923,-122.35341
Washtucna,Adams,WA,2,2,0,1.0,0.0,1,0,46.75578,-118.311
Waterford,New London,CT,1,0,1,0.0,1.0,1,0,41.34593,-72.13852
Watertown,Jefferson,NY,1,1,0,1.0,0.0,1,0,44.04458,-75.81404
Waterville,Douglas,WA,8,8,0,1.0,0.0,1,0,47.64963,-120.07145
Waynesville,Pulaski,MO,1,1,0,1.0,0.0,1,0,37.82268,-92.21193
Wellpinit,Stevens,WA,2,0,2,0.0,1.0,1,0,47.88677,-117.98701
Wenatchee,Chelan,WA,640,513,127,0.8015625,0.1984375,32,1,47.41494,-120.30522
West Point,Orange,NY,2,1,1,0.5,0.5,1,0,41.39523,-73.95502
West Richland,Benton,WA,359,261,98,0.7270194986072424,0.27298050139275765,18,1,46.296872172701946,-119.33877559888579
Westfield,Hamilton,IN,1,1,0,1.0,0.0,1,0,40.04252,-86.13524
Westminster,Carroll,MD,1,0,1,0.0,1.0,1,0,39.57467,-76.99225
Westport,Grays Harbor,WA,38,24,14,0.631578947368421,0.3684210526315789,2,0,46.89112,-124.10424999999998
White Salmon,Klickitat,WA,222,168,54,0.7567567567567568,0.24324324324324326,12,1,45.72755058558559,-121.48603815315315
White Salmon,Skamania,WA,7,6,1,0.8571428571428571,0.14285714285714285,1,0,45.72776,-121.48704
White Swan,Yakima,WA,2,1,1,0.5,0.5,1,0,46.38287,-120.73063
Wilbur,Lincoln,WA,7,2,5,0.2857142857142857,0.7142857142857143,1,0,47.75942,-118.70912
Wildomar,Riverside,CA,1,1,0,1.0,0.0,1,0,33.61239,-117.26237
Wilkeson,Pierce,WA,6,4,2,0.6666666666666666,0.3333333333333333,1,0,47.10963999999999,-122.04732
Willapa,Pacific,WA,3,2,1,0.6666666666666666,0.3333333333333333,1,0,46.68867,-123.72994
Williamsburg,Williamsburg,VA,1,0,1,0.0,1.0,1,0,37.27569,-76.71029
Williamsburg,York,VA,1,1,0,1.0,0.0,1,0,37.27569,-76.71029
Winchester,Middlesex,MA,1,1,0,1.0,0.0,1,0,42.44958,-71.14567
Winchester,Riverside,CA,1,0,1,0.0,1.0,1,0,33.71071,-117.08496
Windsor,Weld,CO,1,1,0,1.0,0.0,1,0,40.47852,-104.90143
Winlock,Lewis,WA,102,73,29,0.7156862745098039,0.28431372549019607,6,1,46.491139999999994,-122.93881
Winter Park,Orange,FL,1,1,0,1.0,0.0,1,0,28.59257,-81.31272
Winthrop,Okanogan,WA,150,113,37,0.7533333333333333,0.24666666666666667,8,1,48.47403586666667,-120.17856640000001
Wishram,Klickitat,WA,2,1,1,0.5,0.5,1,0,45.65936,-120.96465
Woodbine,Howard,MD,1,1,0,1.0,0.0,1,0,39.35812,-77.06409
Woodbridge,Prince William,VA,1,0,1,0.0,1.0,1,0,38.66167,-77.2474
Woodinville,King,WA,2827,2345,482,0.8295012380615493,0.17049876193845065,142,1,47.75418864874425,-122.15403129465865
Woodinville,Snohomish,WA,258,222,36,0.8604651162790697,0.13953488372093023,13,1,47.75443186046512,-122.13824744186047
Woodland,Clark,WA,66,55,11,0.8333333333333334,0.16666666666666666,4,1,45.9094,-122.74017
Woodland,Cowlitz,WA,202,140,62,0.693069306930693,0.3069306930693069,11,1,45.9094,-122.74017
Woodway,Snohomish,WA,126,98,28,0.7777777777777778,0.2222222222222222,7,1,47.81116,-122.37689000000002
Worley,Kootenai,ID,1,1,0,1.0,0.0,1,0,47.40077,-116.91895
Wrch,Benton,WA,3,3,0,1.0,0.0,1,0,46.29695999999999,-119.33836000000001
Yacolt,Clark,WA,83,65,18,0.7831325301204819,0.21686746987951808,5,1,45.86679,-122.40908
Yakima,Yakima,WA,1092,767,325,0.7023809523809523,0.2976190476190476,55,1,46.59351907509158,-120.55091804945054
Yarrow Point,King,WA,164,135,29,0.823170731707317,0.17682926829268292,9,1,47.61001,-122.18720000000002
Yelm,Thurston,WA,458,337,121,0.7358078602620087,0.26419213973799127,23,1,46.94239,-122.60735
Yorktown,York,VA,2,2,0,1.0,0.0,1,0,37.24087,-76.54905
Zillah,Yakima,WA,48,38,10,0.7916666666666666,0.20833333333333334,3,1,46.402596249999995,-120.26730125
